[{"location":{"longitude":"3.7284666","latitude":"51.0486712","description":"usEUm, Platteberg 19, Gent"},"type":"outdoor","title":"Afscheid van de waalse krook","description":"Tentoonstelling Michel Flamme, Sarah Van de Vijver, Prez","schedule":{"stop":"23:00","limit":"50","start":"14:00"}},{"location":{"longitude":"3.7226146","latitude":"51.0569531","description":"Aanlegsteiger Boat in Gent, bij Gravensteen (50m), Kraanlei , Gent"},"type":"outdoor","title":"De Piratenboot + gratis ijsje. Duur 40 min.","description":"Maat Piraat springt aan boord want boeven zitten hem op de hielen. We gaan per boot op zoek naar een geheime schat en hij vertelt onderweg geweldige verhalen over zijn wedervaren om zijn droom te vervullen...","schedule":{"stop":"17:40","limit":"1000","start":"17:00"}},{"location":{"longitude":"3.7498916","latitude":"51.0584416","description":"Begijnhof Sint-Amandsberg, Jan Roomsstraat , Sint-Amandsberg"},"type":"indoor","title":"Diafaan V. Hedendaagse glaskunst in Vlaanderen","description":"'Diafaan' is een biënale tentoonstelling over hedendaagse glaskunst in Vlaanderen die voor de vijfde keer plaatsvindt in het Begijnhof van Sint-Amandsberg. In het hof worden op verschillende plaatsen, binnen en buiten, werk van kunstenaars getoond.","schedule":{"stop":"18:00","limit":"50","start":"13:00"}},{"location":{"longitude":"3.7282741","latitude":"51.0560619","description":"Charlatan, Vlasmarkt 6, Gent"},"type":"outdoor","title":"Steam vs Rotation","description":"Zaal: Decadance presents Drum 'n Bass & Dubstep met dj's Murdock, Bunzero, Madlock, Hookerz, NGA (Gaz, Allspark & MC Nice), Ideaz & Manik","schedule":{"stop":"05:55","limit":"1000","start":"00:00"}},{"location":{"longitude":"3.7268065","latitude":"51.0515278","description":"Provinciehuis, Gouvernementstraat 1, Gent"},"type":"indoor","title":"Rondleiding door de tentoonstelling van Taptoes erfgoed","description":"Luk De Bruyker, stichter en bezieler van Theater Taptoe, neemt zijn publiek op sleeptouw door de rijke Taptoe- geschiedenis. Een boeiende tocht met veel anekdotes.","schedule":{"stop":"12:00","limit":"50","start":"11:00"}},{"location":{"longitude":"3.7231031","latitude":"51.0498805","description":"Vlaamse Opera, Schouwburgstraat , Gent"},"type":"outdoor","title":"Theeconcert - Erika Pauwels","description":"Erika Pauwels in samenwerking met de Dienst Feestelijkheden. Zij presenteert jong zangtalent in opera-, operette- en musicalfragmenten.","schedule":{"stop":"17:00","limit":"50","start":"14:30"}},{"location":{"longitude":"3.7264994","latitude":"51.0428007","description":"Kunsthal Sint-Pietersabdij, Sint-Pietersplein 9, Gent"},"type":"outdoor","title":"Fotografietentoonstelling Ground van Bruno Stevens","description":"Fotojournalist Bruno Stevens brengt in een 100-tal foto’s het resultaat van de ontmoetingen en gebeurtenissen van de voorbije 10  jaar in het Midden-Oosten. Deze foto’s verschenen in bvb. The Sunday Times, Newsweek, Paris-Match, etc.","schedule":{"stop":"18:00","limit":"50","start":"10:00"}},{"location":{"longitude":"3.7167725","latitude":"51.0427045","description":"Brasserie Yanko, Henleykaai 4, Gent"},"type":"indoor","title":"Rosa / De Laatste Roos","description":"Twee komische monologen voor de prijs van één:   Roza: een wc-madam en de mannen in haar leven.  De Laatste Roos: een lustige weduwe opnieuw verliefd.  Tekst en regie: Frans Van Lancker.  Spel: Natalie Donck","schedule":{"stop":"17:30","limit":"100","start":"15:30"}},{"location":{"longitude":"3.7322261","latitude":"51.0542559","description":"Oude Beestenmarkt /, Gent"},"type":"outdoor","title":"Zoektocht in Portus Ganda - meer dan water alleen! (zonder gids)","description":"Deze zoektocht leidt je van de oudste nederzettingen naar de nieuwste haven van de stad. Boekje te koop: Kunstglasramen Mestdagh, Drabstr. 2","schedule":{"stop":"00:00","limit":"50","start":"00:00"}},{"location":{"longitude":"3.6297347","latitude":"51.0667128","description":"Schoolhoeve de Campagne, Gijzelstraat 14, Drongen"},"type":"outdoor","title":"Rit met de koets","description":"De bezoekers kunnen met koetsen een ritje maken in de omgeving van De Campagne","schedule":{"stop":"17:30","limit":"1000","start":"14:00"}},{"location":{"longitude":"3.7169339","latitude":"51.0522058","description":"Monasterium PoortAckere, Oude Houtlei 56, Gent"},"type":"outdoor","title":"Zout","description":"Een muzikale vertelling.  Met een poëtisch verhaal van De Vertelf en Noorse en Duitse liederen van Edvard H. Grieg, gezongen door Irene Carpentier (sopraan), Ineke De Vylder (mezzosopraan) en Jozefien Van Parys (piano)","schedule":{"stop":"17:20","limit":"1000","start":"16:00"}},{"location":{"longitude":"3.7198089","latitude":"51.0593912","description":"Augustijnenklooster Sint-Stefanus, Academiestraat 1, Gent"},"type":"indoor","title":"Filmvoorstelling \"An inconvenient Truth\"","description":"De gefilmde presentatie waarmee Al gore de wereld rondtrok om zijn ongerustheid te ventileren over klimaatverandering en zijn gevolgen...","schedule":{"stop":"12:00","limit":"50","start":"10:30"}},{"location":{"longitude":"3.7018324","latitude":"51.0581592","description":"Pierkespark Brugse Poort tussen Kringloopwinkel en Bij De Vieze Gasten, Haspelstraat 10, Gent"},"type":"outdoor","title":"mozaïek in het Pierkespark","description":"Gratis mozaïekworkshop. Paadjes en banken worden met mozaïek bekleed. Alle materialen zijn voorhanden. Ontwerp is al voorbereid door kunstenares.","schedule":{"stop":"18:00","limit":"50","start":"13:30"}},{"location":{"longitude":"3.7330531","latitude":"51.0401269","description":"Zebrastraat NV, Zebrastraat 32/001, Gent"},"type":"indoor","title":"Filmvoorstelling : kortfilm De Veer van César","description":"hoofdrol Pjeroo Roobjee, gastrollen Jan Decleir, Robbe de Hert, Peter Holvoet-Hanssen","schedule":{"stop":"18:00","limit":"100","start":"14:00"}},{"location":{"longitude":"3.7338082","latitude":"51.0604437","description":"Zaal Ovaki, Ham 139, Gent"},"type":"outdoor","title":"Goe Bezig!","description":"Martin zwiept zijn bezem doorheen de heetste hangijzers die ons dagelijks schaamteloos worden aangereikt. De Dalai Lama, Luc Versteylen, Roger Van Gheluwe - en verder veel ander nieuws over onze politici en over uzelf...","schedule":{"stop":"20:45","limit":"50","start":"19:30"}},{"location":{"longitude":"3.7187391","latitude":"51.0535642","description":"Sint-Michielskerk, Sint-Michielsplein 1, Gent"},"type":"outdoor","title":"Trio Gerardimontensis (B - Geraardsbergen)","description":"Orgel, viool en zang","schedule":{"stop":"16:00","limit":"1000","start":"15:00"}},{"location":{"longitude":"3.72542","latitude":"51.05144","description":"Kalandeberg, Kalandeberg -, Gent"},"type":"outdoor","title":"CONFLICTEN: De conflictrijke 14de eeuw.","description":"Gentenaars hebben dan voortdurend te kampen met sociale, economische en politieke conflicten. 1302, de Honderdjarige Oorlog, pest, hongersnood, opstanden... We verkennen Gentse sporen en vertellen over de boeiende Artevelde-eeuw. Reserveren niet nodig.","schedule":{"stop":"12:00","limit":"50","start":"10:00"}},{"location":{"longitude":"3.7285385","latitude":"51.0557895","description":"Kinky Star, Vlasmarkt 9, Gent"},"type":"outdoor","title":"Bowie Peru","description":"Rock-'n-roll","schedule":{"stop":"01:00","limit":"50","start":"00:00"}},{"location":{"longitude":"3.6295947","latitude":"51.0671875","description":"Landgoed De Campagne, Gijzelstraat 12, Drongen"},"type":"outdoor","title":"Openlucht filmvoorstelling \"Zot van A\"","description":"Geniet in openlucht van de romantische komedie \"Zot van A\", een film van Jan Verheyen. Prachtige cast én film.  Raadpleeg onze website trojka.be voor de laatste info. Bij slecht weer gaat de voorstelling door in de grote zaal van 'De Campagne'.","schedule":{"stop":"01:00","limit":"50","start":"22:30"}},{"location":{"longitude":"3.7251237","latitude":"51.0559253","description":"Hof Van Ryhove, Onderstraat 20, Gent"},"type":"indoor","title":"Comedy voor Kids","description":"Al vijf jaar op rij een uitverkocht succes op de Feesten! De enige familievoorstelling die iedere keer verrast: de plezanteriken op het podium maken sketches en liedjes op basis van jouw ideeën. Laureaat Kinderjuryprijs Gentse Feesten. Van 8 tot 88 jaar.","schedule":{"stop":"16:00","limit":"100","start":"15:00"}},{"location":{"longitude":"3.6297347","latitude":"51.0667128","description":"Schoolhoeve de Campagne, Gijzelstraat 14, Drongen"},"type":"outdoor","title":"Zoektocht","description":"De kinderen verkennen de boerderij en de dieren aan de hand van een aangepaste zoektocht","schedule":{"stop":"18:00","limit":"1000","start":"14:00"}},{"location":{"longitude":"3.7294696","latitude":"51.0578349","description":"Baudelopark, Bibliotheekstraat 7, Gent"},"type":"outdoor","title":"Circus Krak (Charlieston, B)","description":"De wereldberoemde danseres Charlie maakt zich klaar voor haar volgende voorstelling. Haar hulpje Ston slaagt er echter keer op keer in om haar act te verstoren. Een charmante, woordenloze familievoorstelling voor kinderen vanaf 2 jaar.","schedule":{"stop":"17:45","limit":"1000","start":"17:00"}},{"location":{"longitude":"3.7231031","latitude":"51.0498805","description":"Vlaamse Opera, Schouwburgstraat , Gent"},"type":"outdoor","title":"Theeconcert - Erika Pauwels","description":"Erika Pauwels in samenwerking met de Dienst Feestelijkheden. Zij presenteert jong zangtalent in opera-, operette- en musicalfragmenten.","schedule":{"stop":"17:00","limit":"50","start":"15:00"}},{"location":{"longitude":"3.7259419","latitude":"51.0572665","description":"Toreken, hoek Kammerstraat/Vrijdagmarkt, Vrijdagmarkt , Gent"},"type":"outdoor","title":"Gent Ludiek","description":"Anekdotes over de grappige, maar historisch verantwoorde kantjes van Gent en z'n eigenzinnige inwoners. Dit is het verhaal van Lowie-die-Zwiet, de roaste Wasser en Miele Zoetekoeke.","schedule":{"stop":"13:00","limit":"50","start":"11:00"}},{"location":{"longitude":"3.7109101","latitude":"51.0371122","description":"Hoofdingang Sint-Pietersstation, Koningin Maria Hendrikaplein , Gent"},"type":"outdoor","title":"Het Miljoenenkwartier","description":"Deze wijk nabij het Sint-Pietersstation vindt haar oorsprong in de Wereldtentoonstelling van 1913. Laat u charmeren door deze prestigieuze buurt en haar bijzondere architectuur.","schedule":{"stop":"12:30","limit":"50","start":"11:00"}},{"location":{"longitude":"3.7282741","latitude":"51.0560619","description":"Charlatan, Vlasmarkt 6, Gent"},"type":"outdoor","title":"The Women","description":"Gratis caféconcert! Strakke retro rockband met o.a. Johannes Verschaeve van The Van Jets , ...","schedule":{"stop":"22:00","limit":"1000","start":"21:00"}},{"location":{"longitude":"3.7227266","latitude":"51.0576395","description":"Infostand Vizit, Corduwaniersstraat 4, Gent"},"type":"outdoor","title":"Tienduizend Keer Beter","description":"Wonderdokters en kwakzalvers, kruiden en gebedjes, pillen en barbiers... Ontdek tijdens deze wandeling hoe je gezond wordt en blijft. 10000 stappen per dag doen je goed, een stappenteller helpt je alvast op weg. Weldadig drankje inbegrepen!","schedule":{"stop":"13:00","limit":"50","start":"11:00"}},{"location":{"longitude":"3.72542","latitude":"51.05144","description":"Kalandeberg, Kalandeberg -, Gent"},"type":"outdoor","title":"CONFLICTEN: De conflictrijke 14de eeuw.","description":"Gentenaars hebben dan voortdurend te kampen met sociale, economische en politieke conflicten. 1302, de Honderdjarige Oorlog, pest, hongersnood, opstanden... We verkennen Gentse sporen en vertellen over de boeiende Artevelde-eeuw. Reserveren niet nodig.","schedule":{"stop":"16:30","limit":"50","start":"14:30"}},{"location":{"longitude":"3.7198089","latitude":"51.0593912","description":"Augustijnenklooster Sint-Stefanus, Academiestraat 1, Gent"},"type":"indoor","title":"GELEGENHEIDSRESTAURANT Augustijnenklooster","description":"Dagelijks gelegenheidsrestaurant tussen 12.00u en 15.00u ten voordele van de Afrikaprojecten van de Paters Augustijnen","schedule":{"stop":"15:00","limit":"100","start":"12:00"}},{"location":{"longitude":"3.7242079","latitude":"51.0542133","description":"Lazy River Jazz Club vzw, Stadhuissteeg 5, Gent"},"type":"indoor","title":"Phil and the Rhythm Devils (B)","description":"Boogie Woogie en swing","schedule":{"stop":"01:00","limit":"1000","start":"20:00"}},{"location":{"longitude":"3.6297347","latitude":"51.0667128","description":"Schoolhoeve de Campagne, Gijzelstraat 14, Drongen"},"type":"outdoor","title":"Springkasteel","description":"De kinderen kunnen zich uitleven op het springkasteel","schedule":{"stop":"18:00","limit":"1000","start":"14:00"}},{"location":{"longitude":"3.7330531","latitude":"51.0401269","description":"Zebrastraat NV, Zebrastraat 32/001, Gent"},"type":"indoor","title":"Filmvoorstelling: documentaire Mugo: prentenmaker en speelgoedcollectionneur","description":"hoofdrol Mugo","schedule":{"stop":"18:00","limit":"100","start":"14:00"}},{"location":{"longitude":"3.7198035","latitude":"51.052799","description":"Het Pand, Onderbergen 1, Gent"},"type":"outdoor","title":"Rondleidingen in de Etnografische Verzamelingen: Levenswijsheid en geluk! Verrassende voorwerpen uit het traditionele China","description":"Enthousiaste gidsen vertellen bijzondere verhalen over voorwerpen uit het vroegere China. Ga mee op avontuur in de rijke wereld van de Aziatische cultuur en kom in contact met de oosterse wijze van denken en leven en raak vertrouwd met hun esthetiek.","schedule":{"stop":"16:30","limit":"50","start":"15:00"}},{"location":{"longitude":"3.7201238","latitude":"51.054856","description":"Aanlegsteiger De Bootjes Van Gent - Rederij Dewaele, Korenlei , Gent"},"type":"outdoor","title":"Battoo Sjantan, boottocht met Gentse liedjes. Duur: 1u15","description":"Een varend café-chantant langs de Gentse bezienswaardigheden. Een hommage aan Romain Deconinck, Walter De Buck, enz... inc. muzikant, zanger, rondvaart, dreupel, vliegent bloatske (tekstenboek van de liedjes). Auteur en regie: Freek Neirynck.","schedule":{"stop":"20:15","limit":"1000","start":"19:00"}},{"location":{"longitude":"3.7151519","latitude":"51.0439708","description":"Ingang STAM, Godshuizenlaan 2, Gent"},"type":"outdoor","title":"De Bijlokesite - NIEUW!","description":"Een plek waar studenten, muzikanten en bezoekers van het STAM te vinden zijn… Binnen de muren van deze site doen we het verhaal van haar vroegere bewoners en de historische gebouwen, tot de activiteiten en architectuur van vandaag.","schedule":{"stop":"17:00","limit":"50","start":"15:30"}},{"location":{"longitude":"3.7279839","latitude":"51.0580378","description":"Turnzaal Secundair Kunstinstituut Stad Gent, Ottogracht 4, Gent"},"type":"indoor","title":"Dacart","description":"Dacart is een tentoonstelling, georganiseerd door het dagactiviteitencentrum van Zonnehoeve|Living+. De werken die worden getoond zijn de werken, gemaakt door onze cliënten. Het gaat over beeldend werk, schilderijen, collages… Alle werken zijn te koop.","schedule":{"stop":"22:00","limit":"1000","start":"15:00"}},{"location":{"longitude":"3.7223906","latitude":"51.058202","description":"Caermersklooster, Vrouwebroersstraat 6, Gent"},"type":"outdoor","title":"Provinciale Prijs voor Vormgeving 2010","description":"Tentoonstelling met werk van Erik Sijmons, Leen Depooter en het duo Luc d’Hanis & Sofie Lachaert, laureaat en genomineerden van de zevende editie van Provinciale Prijs voor Vormgeving","schedule":{"stop":"17:00","limit":"50","start":"10:00"}},{"location":{"longitude":"3.7211791","latitude":"51.0502707","description":"Aan het standbeeld voor het oude Justitiepaleis, Koophandelsplein, Gent, Koophandelsplein 23, Gent"},"type":"outdoor","title":"Nie Pleuje ! Een verrassende wandeling over de eigenzinnigheid van de Gentenaren door de eeuwen heen.","description":"Wat zou Gent zijn zonder de kritische, rebelse en tegendraadse Gentenaren die ‘Nie Pleujen’ ofwel nooit opgeven ? Waar komt die Gentse mentaliteit eigenlijk vandaan en vooral, hoe heeft ze de stad tot op de dag van vandaag getekend ?","schedule":{"stop":"12:15","limit":"50","start":"10:30"}},{"location":{"longitude":"3.7254561","latitude":"51.0536709","description":"Belfort, Sint-Baafsplein , Gent"},"type":"outdoor","title":"Zangstonde met accordeonist Wim Claeys in de Lakenhalle","description":"Wim Claeys zingt een mix van oude en nieuwe volksliedjes. Van gekende krakers zoals 'In mijn stroatje zijn 't allemoal commeren' tot minder bekende pareltjes. Met één constante: hij zingt altijd in het Platgents.","schedule":{"stop":"16:30","limit":"50","start":"15:00"}},{"location":{"longitude":"3.72","latitude":"51.05665","description":"Rigakaai - tegenover WEBA, Rigakaai 0375, Gent"},"type":"indoor","title":"Havenrondvaarten met het havenjacht \"Jacob van Artevelde\"","description":"Ga tijdens de Gentse Feesten mee op verkenning in de haven. We starten aan de Rigakaai en varen helemaal tot aan ArcelorMittal.  U maakt kennis met alle dokken en met alle belangrijke spelers zoals oa Volvo, Stora Enso, Bio Base Europe, enz","schedule":{"stop":"16:00","limit":"100","start":"14:30"}},{"location":{"longitude":"3.7264994","latitude":"51.0428007","description":"Kunsthal Sint-Pietersabdij, Sint-Pietersplein 9, Gent"},"type":"outdoor","title":"Poppentheater Magie","description":"Poppentheater Magie brengt in de Sint Pietersabdij de mooiste sprookjes geschikt voor de hele familie.","schedule":{"stop":"16:00","limit":"50","start":"14:30"}},{"location":{"longitude":"3.7271842","latitude":"51.0562813","description":"Café Trefpunt, Bij Sint-Jacobs 18, Gent"},"type":"outdoor","title":"De vijf zintuigen","description":"De kinderen ontdekken de multiculturele wereld door op interactieve wijze gebruik te maken van hun vijf zintuigen: horen, zien, voelen, proeven, ruiken en zeker niet zwijgen. Onder leiding van pedagogisch geschoolde gidsen. Ouders ook welkom","schedule":{"stop":"16:00","limit":"50","start":"14:00"}},{"location":{"longitude":"3.70568","latitude":"51.044251","description":"School De Wingerd, Neermeerskaai 1a, Gent"},"type":"indoor","title":"Den tijd van den dzoebox","description":"We nemen u mee naar de jukeboxperiode, naar de flitsende kasten gevuld met vinyl- of cd plaatjes. In een show vol humor, sketches en veel muziek brengen we u de Gentse, Vlaamse en Internationale hits vanaf 1970. Geef Buzze! Duoticket Nico Lennyshow: 20€","schedule":{"stop":"17:00","limit":"1000","start":"14:30"}},{"location":{"longitude":"3.7287123","latitude":"51.0599955","description":"MIAT, Minnemeers 9, Gent"},"type":"outdoor","title":"Stadsvernieuwing in de 19e eeuwse gordel","description":"Om tegemoet te komen aan de nieuwe noden in de binnenstad, kregen talrijke industriële panden een herbestemming: wonen, werken, ontspanning,...Met bezoek aan de Kopergietery","schedule":{"stop":"16:00","limit":"50","start":"14:00"}},{"location":{"longitude":"3.72","latitude":"51.05665","description":"Rigakaai - tegenover WEBA, Rigakaai 0375, Gent"},"type":"indoor","title":"Havenrondvaarten met het havenjacht \"Jacob van Artevelde\"","description":"Ga tijdens de Gentse Feesten mee op verkenning in de haven. We starten aan de Rigakaai en varen helemaal tot aan ArcelorMittal.  U maakt kennis met alle dokken en met alle belangrijke spelers zoals oa Volvo, Stora Enso, Bio Base Europe, enz","schedule":{"stop":"11:30","limit":"100","start":"10:00"}},{"location":{"longitude":"3.7294696","latitude":"51.0578349","description":"Baudelopark, Bibliotheekstraat 7, Gent"},"type":"outdoor","title":"Overstekend Wild","description":"Vijftien waaghalzen steken al koorddansend de Leie (aan het Baudelopark) over. Tot voor kort waren het rookies die nog nooit op een draad hadden gelopen, maar na een intensieve opleiding staan ze paraat om het Jeugdcircusfestival spectaculair te openen.","schedule":{"stop":"16:00","limit":"1000","start":"15:00"}},{"location":{"longitude":"3.7169339","latitude":"51.0522058","description":"Monasterium Poortackere, Oude Houtlei 56, Gent"},"type":"indoor","title":"Moralia","description":"Elly Aerden bezingt in eigentijds levendig gezongen Latijn de waanzin van de liefde en de lente.","schedule":{"stop":"13:00","limit":"1000","start":"12:00"}},{"location":{"longitude":"3.7183287","latitude":"51.0583441","description":"theater Tinnenpot, zaal Bonbonniere, Tinnenpotstraat 21, Gent"},"type":"indoor","title":"Het is donker en het danst","description":"Een kleurrijke familievoorstelling (9+) over Alma die een stoffenwinkel uitbaat en vele andere personages. Een verhaal met beweging en kleur, gespeeld door Hilde Breda,bekend van o.m. 'Kaat & Co' en 'Katarakt'. (zie ook xlp.be)","schedule":{"stop":"15:50","limit":"100","start":"15:00"}},{"location":{"longitude":"3.7131195","latitude":"51.0788791","description":"de kring, Sint-Godelievestraat 59, Wondelgem"},"type":"indoor","title":"Travestieshow Feerie au paradis","description":"Travestieshow maar op zijn parijse wijze met pluimen strass pailletten .Met prachtige  kostuums zoals in de moulin rouge,glamour numers,comische acts,prachtig   decor,sfeervolle zaal.En dit jaar md zaza en haar dancers erbij!","schedule":{"stop":"23:30","limit":"100","start":"20:30"}},{"location":{"longitude":"3.7198035","latitude":"51.052799","description":"Het Pand, Onderbergen 1, Gent"},"type":"outdoor","title":"Workshops voor kinderen in de Etnografische Verzamelingen","description":"Kruip in de huid van een heuse ontdekkingsreiziger. Verken de wereld aan de hand van voorwerpen en verhalen.   Speel spelletjes van verre volkeren. Zo kom je te weten hoe kinderen zich daar amuseren en groot worden. Ouders welkom. Schrijf tijdig in!","schedule":{"stop":"12:00","limit":"50","start":"11:00"}},{"location":{"longitude":"3.72","latitude":"51.05665","description":"Zuidpark, Woodrow Wilsonplein , Gent"},"type":"outdoor","title":"Waar zijn de Rechtvaardige Rechters gebleven?","description":"Stadsspel. Geleid door een fotoboek met route, opdrachten en info over de roof van de Rechtvaardige Rechters, spoor je een tipgever op, stel je een onderzoek in en breng je denk-, doe-, creatieve en ludieke opdrachten tot een goed eind!","schedule":{"stop":"18:00","limit":"50","start":"15:00"}},{"location":{"longitude":"3.7234722","latitude":"51.0574921","description":"Het Huis van Alijn, Kraanlei 65, Gent"},"type":"outdoor","title":"Miezere Muis","description":"Pierke moet de kelder van het kasteel van Baron Verdure ontruimen om plaats te maken voor een bestelling wijn. Pierke mag in geen geval de roestige deur openen, anders komt er een groot onheil over de streek. Maar...","schedule":{"stop":"16:30","limit":"1000","start":"15:00"}},{"location":{"longitude":"3.7266301","latitude":"51.055272","description":"Feestzone, Belfortstraat , Gent"},"type":"outdoor","title":"Belleman Jean-Pierre Van De Perre","description":"Belleman te zien in het straatbeeld is ter beschikking van de bevolking en feestvierders bij de rondgang van de stroppendragers.","schedule":{"stop":"20:00","limit":"50","start":"16:00"}},{"location":{"longitude":"3.7294696","latitude":"51.0578349","description":"Baudelopark, Bibliotheekstraat 7, Gent"},"type":"outdoor","title":"Circusworkshops voor kleuters","description":"Elke dag van het Jeugdcircusfestival kunnen kleuters, begeleid door een volwassene, gratis proeven van leuke circustechnieken: koorddansen, ballopen, jongleren, ... Doorlopend van 15u tot 18u. Vooraf inschrijven aan het onthaal is verplicht.","schedule":{"stop":"18:00","limit":"50","start":"15:00"}},{"location":{"longitude":"3.7244453","latitude":"51.0487669","description":"Sint Barbaracollege, Savaanstraat 33, Gent"},"type":"indoor","title":"Taminco Internationaal Schaaktornooi van Gent","description":"Heeft plaats van 16 t/m 20 juli 2011, 9 ronden Zwitsers systeem, partijen 2 uur KO, prijzengeld 6875€ bij 300 deelnemers, eerste prijs 1800€ gegarandeerd? Dit traditioneel open tornooi heeft plaats in de week van de Gentse Feesten.","schedule":{"stop":"23:00","limit":"50","start":"13:00"}},{"location":{"longitude":"3.7245619","latitude":"51.0528708","description":"HETEKOEKJE, Bennesteeg 1-3, Gent"},"type":"indoor","title":"Helderziende Sonia Desmadryl","description":"Geeft inzicht via kaartleggen, numerologie en pendelen.","schedule":{"stop":"00:00","limit":"50","start":"14:00"}},{"location":{"longitude":"3.72","latitude":"51.05665","description":"Domzaal - Kunstencentrum Vooruit, Sint-Pietersnieuwstraat 23, Gent"},"type":"indoor","title":"Steven Goegebeur - TRY-OUT De geknipte man","description":"Debutant Steven Goegebeur  brengt met deze try-out een staaltje stand-upcomedy van de bovenste plank met een razend tempo en boordevol verknipte situaties. Tevens maakt Philippe Geubels met deze voorstelling zijn regiedebuut. Komt dat zien!","schedule":{"stop":"23:50","limit":"1000","start":"22:30"}},{"location":{"longitude":"3.7226146","latitude":"51.0569531","description":"Aanlegsteiger Boat in Gent, bij Gravensteen (50m), Kraanlei , Gent"},"type":"outdoor","title":"De Piratenboot + gratis ijsje. Duur 40 min.","description":"Maat Piraat springt aan boord want boeven zitten hem op de hielen. We gaan per boot op zoek naar een geheime schat en hij vertelt onderweg geweldige verhalen over zijn wedervaren om zijn droom te vervullen...","schedule":{"stop":"14:40","limit":"1000","start":"14:00"}},{"location":{"longitude":"3.726163","latitude":"51.0581348","description":"MCAF, Edward Anseeleplein 6, Gent"},"type":"outdoor","title":"Gelijkheid en de oneindige verscheidenheid","description":"Een confrontatie met werken van Jean Bilquin en werken van enkele belangrijke hedendaagse Chinese kunstenaars.","schedule":{"stop":"18:00","limit":"50","start":"14:00"}},{"location":{"longitude":"3.7226146","latitude":"51.0569531","description":"Aanlegsteiger Boat in Gent, bij Gravensteen (50m), Kraanlei , Gent"},"type":"outdoor","title":"Portus Ganda + Oude Dokken per boot met gratis ijsje. Duur: 1u45","description":"Met gids van Kraanlei, door sluis, via Portus Ganda, De Pauw-doorgang en Dampoort naar de Oude Dokken met zijn schitterend stadsvernieuwingsproject en terug. Voor echte kurieuzeneuzen! Tickets afhalen vanaf 1 uur vóór afvaart.","schedule":{"stop":"19:15","limit":"100","start":"17:30"}},{"location":{"longitude":"3.7271892","latitude":"51.0555761","description":"Salon van Casa Rosa vzw, Kammerstraat 22, Gent"},"type":"outdoor","title":"Kinderopvang & knutselatelier Casa Rosa","description":"door de vrijwilligers (v/m) van Casa Rosa wordt dagelijkse kinderopvang georganiseerd, met knutsel activiteiten. Voor kleinere kinderen is er een luier ververs tafel voorzien.","schedule":{"stop":"18:00","limit":"50","start":"14:00"}},{"location":{"longitude":"3.7198089","latitude":"51.0593912","description":"Augustijnenklooster Sint-Stefanus, Academiestraat 1, Gent"},"type":"indoor","title":"Rondleidingen Augustijnenklooster Sint-Stefanus","description":"U krijgt een unieke kans een rondleiding mee te maken door een gids in het prachtige Augustijnenklooster Sint-Stefanus. De binnentuin is prachtig, de bibliotheek een pareltje...","schedule":{"stop":"12:00","limit":"50","start":"11:00"}},{"location":{"longitude":"3.7201238","latitude":"51.054856","description":"Aanlegsteiger De Bootjes van Gent-Rederij Dewaele, Korenlei , Gent"},"type":"outdoor","title":"Portus Ganda + Oude Dokken per boot met gratis ijsje.  Duur: 1u45","description":"Met gids van Korenlei, door de sluis, via Portus Ganda en Dampoort naar de Oude Dokken met zijn schitterend stadsvernieuwingsproject en terug. Voor echte kurieuzeneuzen! Tickets afhalen vanaf 1 uur vóór afvaart.","schedule":{"stop":"13:15","limit":"1000","start":"11:30"}},{"location":{"longitude":"3.7279839","latitude":"51.0580378","description":"secundair kunstintituut - speelplaats - ingang via Baudelohof, Ottogracht 4, Gent"},"type":"outdoor","title":"Elga - Het Panopticum","description":"Elga – Het Panopticum dompelt jou onder in de historiek van Gent waar revolutionaire figuren het voortouw namen. Dit levend museum vind je op de speelplaats van het SKI palend aan het Baudelohof. Een productie in samenwerking met het Vermeylenfonds.","schedule":{"stop":"18:40","limit":"50","start":"18:00"}},{"location":{"longitude":"3.7201238","latitude":"51.054856","description":"Aanlegsteiger De Bootjes Van Gent - Rederij Dewaele, Korenlei , Gent"},"type":"outdoor","title":"Verliefd op Gent, of op het punt het te worden?","description":"Luchtige initiatie-rite tot het statuut van Gentenaar. Sterk aanbevolen voor al wie graag in Gent blijft plakken en zich een muileke Gents wil eigen maken","schedule":{"stop":"20:00","limit":"1000","start":"19:00"}},{"location":{"longitude":"3.7394541","latitude":"51.0493207","description":"Theaterzaal Steinerschool, Kasteellaan 54, Gent"},"type":"outdoor","title":"Oosterlengte","description":"Oosterlengte is een verhaal van twee verhalen. Het ene speelt zich af aan deze kant van de wereld. Het andere begint aan de andere kant van de wereld, en maakt een lange reis totdat beide verhalen elkaar aanraken.","schedule":{"stop":"22:00","limit":"50","start":"20:30"}},{"location":{"longitude":"3.7234722","latitude":"51.0574921","description":"Het Huis van Alijn, Kraanlei 65, Gent"},"type":"outdoor","title":"Belcanto-ontbijt in het Huis van Alijn","description":"Geniet in de binnentuin van een lekker ontbijt met een streepje muziek. Keuze tussen een Belcanto-ontbijt (€ 7) en een Belcanto-Royal-ontbijt (mét bubbels - € 10). Welkom tussen 10 en 12 uur! Graag aanmelden vanaf 10 pers. Dit is echter geen reservatie.","schedule":{"stop":"12:00","limit":"1000","start":"10:00"}},{"location":{"longitude":"3.7251237","latitude":"51.0559253","description":"Hof Van Ryhove, Onderstraat 20, Gent"},"type":"indoor","title":"Jovanka Steele – Adventures in Europe-Land","description":"Heerlijke Amerikaanse stand-up doorspekt met koetervlaams. Deze formidabele comédienne is al jarenlang een graag geziene gast op de Feesten en reisde al een groot stuk van Europa rond met haar nieuwste show. Nu is haar thuisstad Gent aan de beurt!","schedule":{"stop":"23:30","limit":"100","start":"22:00"}},{"location":{"longitude":"3.7223906","latitude":"51.058202","description":"Caermersklooster, Vrouwebroersstraat 6, Gent"},"type":"outdoor","title":"Compelling Faces","description":"een fototentoonstelling van Caroline ALIDA, Lieven NOLLET en Yan XINFA.  Los van elkaar heeft ieder van hen gedurende verschillende jaren portretten gemaakt van individuen die deel uitmaken van gemarginaliseerde groepen uit de samenleving.","schedule":{"stop":"17:00","limit":"50","start":"10:00"}},{"location":{"longitude":"3.72","latitude":"51.05665","description":"10 Days Off - Vooruit, Sint-Pietersnieuwstraat , Gent"},"type":"outdoor","title":"Spacid (BE)","description":"Plugt zijn koptelefoon al 21 jaar (!) in de ontelbare mengpanelen van de Belgische scene en draait nog altijd mee bovenaan. Resident op (oa) Kozzmozz en Beats Of Love en regelmatig op de affiche van grote events (dit is zijn 7e keer op 10 Days Off).","schedule":{"stop":"05:55","limit":"5000","start":"23:00"}},{"location":{"longitude":"3.7287123","latitude":"51.0599955","description":"MIAT, Minnemeers 9, Gent"},"type":"outdoor","title":"Expo 'Ons industrieel verleden'","description":"Duik 250 jaar terug in de tijd. Vergeet alle technologische toepassingen, zoals gsm, computer en ipod. Je belandt in de 18e eeuw en komt vervolgens in de periode van de 1e industriële revolutie met de opkomst van de machine.","schedule":{"stop":"18:00","limit":"100","start":"10:00"}},{"location":{"longitude":"3.6297347","latitude":"51.0667128","description":"Schoolhoeve de Campagne, Gijzelstraat 14, Drongen"},"type":"outdoor","title":"Dieren voederen","description":"De kinderen gaan samen met de boer de aanwezige dieren voederen","schedule":{"stop":"18:00","limit":"1000","start":"17:00"}},{"location":{"longitude":"3.7142364","latitude":"51.0546514","description":"Bar Oh, Hoogstraat 88, Gent"},"type":"indoor","title":"Ontbijt met Stadswandeling","description":"Elke dag een historische wandeling. info: www.dekorf.be of info@gidsenbond-gent.be","schedule":{"stop":"12:30","limit":"50","start":"08:00"}},{"location":{"longitude":"3.7242164","latitude":"51.0550728","description":"Sjapo, Hoogpoort 41, Gent"},"type":"outdoor","title":"Passie Zonder Kompassie","description":"Tijdens een tocht doorheen de stad ontmoeten we een aantal mensen met een handicap die ons op een hoogstpersoonlijke manier vertellen over wat hen passioneert: muziek, poëzie, theater, schilderen, koken... (ontbijt in Sjapo op zondag 17/06 = €7)","schedule":{"stop":"13:00","limit":"50","start":"10:30"}},{"location":{"longitude":"3.7328153","latitude":"51.0564168","description":"tse-tse-art gallery hedendaagse afrikaanse kunst, Sint-Joriskaai 18, Gent"},"type":"indoor","title":"Expo  Mbongeni BUTHELEZI  (Zuid-Afrika)","description":"Mbongeni BUTHELEZI is opgegroeid in Soweto, Johannesburg. Zijn schilderijen zijn een optimistische weergave van het leven in een township. Hij heeft een techniek ontwikkeld waarbij hij gerecycleerde plastic verpakkingen smelt met een hete lucht blazer.","schedule":{"stop":"21:00","limit":"50","start":"16:00"}},{"location":{"longitude":"3.723231","latitude":"51.0546855","description":"Bretoens Pannenkoekenhuis Gwenola, Donkersteeg 16, Gent"},"type":"indoor","title":"Café Cantant, Willy Bart en zijne kluts : optreden","description":"Nen hutsepot van Gentsche liedjes mee Willy Bart, Pat Remue & Sabien","schedule":{"stop":"14:30","limit":"100","start":"12:30"}},{"location":{"longitude":"3.7655381","latitude":"51.0321875","description":"Ottenstadion Gent, Bruiloftstraat 42, Gentbrugge"},"type":"indoor","title":"Fandag K.A.A. Gent","description":"Opendeurdag met voorstelling van de spelerskern, demonstratietraining, handtekeningsessie van spelers en technische staf, voorstelling van de jeugdwerking,Voetbal in de stad,  de Supportersfederatie en de supportersclubs. Met muziek, kinderanimatie en drank -en eetstanden.","schedule":{"stop":"18:00","limit":"5000","start":"12:00"}},{"location":{"longitude":"3.7178529","latitude":"51.0545335","description":"Brasserie Het Volk, Poel 7, Gent"},"type":"outdoor","title":"Ontbijt","description":"Uitgebreid ontbijtbuffet (verse koeken, broodjes, omeletten, spek, fruitsap, koffie, thee enz...) Reservatie bevestigd bij betaling en afhaling kaarten. Zitplaatsen verzekerd !","schedule":{"stop":"10:15","limit":"50","start":"09:00"}},{"location":{"longitude":"3.7254561","latitude":"51.0536709","description":"Belfort, Sint-Baafsplein , Gent"},"type":"indoor","title":"Belfortcafé","description":"De deuren van de Lakenhalle staan voor de gelegenheid van de Gentse Feesten open voor de dorstigen onder ons!","schedule":{"stop":"18:00","limit":"100","start":"13:00"}},{"location":{"longitude":"3.7198035","latitude":"51.052799","description":"Het Pand, Onderbergen 1, Gent"},"type":"outdoor","title":"Levenswijsheid en geluk! Verrassende voorwerpen uit het traditionele China in de Etnografische Verzamelingen","description":"Een tijdelijke presentatie van kleurrijke kimono's, kunstige kalligrafieën, mysterieuze miniatuurtheatertjes en andere betoverende authentieke voorwerpen die oosterse ideeën over geluk en wijsheid verbeelden. Maak kennis met boeiende Chinese kunst.","schedule":{"stop":"17:00","limit":"50","start":"11:00"}},{"location":{"longitude":"3.7319393","latitude":"51.0480347","description":"Capitole - kleine zaal, Graaf van Vlaanderenplein 5, Gent"},"type":"outdoor","title":"Dag                                       Figurentheater voor kleuters","description":"Zoveel saaie dagen? Waarom is het niet elke dag mijn verjaardag,Pasen of Nieuwjaar? Titiana ontmoet Dageraad en ze beslissen om van elke dag een \"superdag \" te maken!(drankje incl.)  Tekst;Lien Maes  Regie:Hilde Heÿnen en Alain Pringels","schedule":{"stop":"14:45","limit":"50","start":"14:00"}},{"location":{"longitude":"3.7142364","latitude":"51.0546514","description":"Bar Oh, Hoogstraat 88, Gent"},"type":"indoor","title":"Ontbijt met akoestische muziekale omkadering met aperitief en tapas","description":"Elke dag een andere muziekant","schedule":{"stop":"12:30","limit":"50","start":"10:30"}},{"location":{"longitude":"3.7253208","latitude":"51.0545313","description":"Stadhuis, Botermarkt 1, Gent"},"type":"outdoor","title":"'Rechtspraak en gerechtigheid.' Themarondleiding in het Stadhuis.","description":"In het stadhuis werd vroeger recht gesproken. Opvallend is het labyrint in de Pacificatiezaal. Die banmijl kon een aantal keren worden afgelegd als straf voor sommige overtreders van de wet.","schedule":{"stop":"17:15","limit":"50","start":"16:30"}},{"location":{"longitude":"3.7198089","latitude":"51.0593912","description":"Augustijnenklooster Sint-Stefanus, Academiestraat 1, Gent"},"type":"indoor","title":"Werkwinkel \"Juweeltjes en accessoires vilten\"","description":"Maak zelf een halsketting, ring, armband, oorring uit Merinowol, geïnspireerd op de natuur.","schedule":{"stop":"17:00","limit":"50","start":"14:00"}},{"location":{"longitude":"3.6297347","latitude":"51.0667128","description":"Schoolhoeve de Campagne, Gijzelstraat 14, Drongen"},"type":"outdoor","title":"Diertjes knuffelen","description":"De kinderen kunnen een aantal kleinere diertjes (konijnen, cavia's) knuffelen","schedule":{"stop":"17:00","limit":"1000","start":"14:00"}},{"location":{"longitude":"3.7197901","latitude":"51.0496243","description":"Benelux Rederij, Recollettenlei 32, Gent"},"type":"indoor","title":"Leiecruise met vrije wandeling te Sint-Martens-Latem","description":"Leietocht met de Beneluxboot op de schilderachtige Leie met één uur stop te Sint-Martens-Latem. Inscheping tussen 12u00 en 12u45. Afvaart om 13u00. Stop te Latem tussen 15u00 en 16u00.Terug in Gent om 17u30. Mogelijkheid tot lunch mits reservatie vooraf.","schedule":{"stop":"17:30","limit":"100","start":"12:00"}},{"location":{"longitude":"3.7287123","latitude":"51.0599955","description":"MIAT, Minnemeers 9, Gent"},"type":"outdoor","title":"Expo Matchbox on tour","description":"Matchbox is een tentoonstellingsproject op wielen, in de tuin van het MIAT. De Nederlandse Conny Kuilboer en de Russische Nina Stoupina zullen samenwerken. Met feestelijke opening op zondagmiddag 17 juli.","schedule":{"stop":"17:00","limit":"50","start":"14:00"}},{"location":{"longitude":"3.7270351","latitude":"51.0569242","description":"Ons Huis - Fernandezzaal, Vrijdagmarkt 9, Gent"},"type":"outdoor","title":"Leven in Gent/Dallas","description":"Leven in Gent/Dallas - een andere kijk op wonen. De bezoekers van de feesten leren een ander Gent met zijn bewoners kennen. Een Gent voorbij de feestkern die onze perceptie in vraag stelt over hoe wij een sociale woonwijk beleven.","schedule":{"stop":"20:00","limit":"1000","start":"14:00"}},{"location":{"longitude":"3.7295798","latitude":"51.0578952","description":"ingang Baudelopark, Bibliotheekstraat 1, Gent"},"type":"outdoor","title":"Merkwaardige Bomenwandeling door Gent","description":"Tijdens de merkwaardige bomenwandeling tronen we u mee naar bijzondere groenplekjes en bomen in Gent.","schedule":{"stop":"16:20","limit":"50","start":"15:00"}},{"location":{"longitude":"3.7294696","latitude":"51.0578349","description":"Baudelopark, Bibliotheekstraat 7, Gent"},"type":"outdoor","title":"Ell Circo d'ell Fuego & Ketnet (jeugdcircus, BE)","description":"Enkele jonge talenten van het Antwerpse circusatelier Ell Circo d'ell Fuego én van de nieuwe Ketnet-circusselectie die eind dit jaar op TV zal verschijnen, tonen op het Jeugdcircusfestival wat ze in hun mars hebben.","schedule":{"stop":"16:30","limit":"1000","start":"16:00"}},{"location":{"longitude":"3.7238516","latitude":"51.053485","description":"Zodiac, Heilige-Geeststraat 3, Gent"},"type":"indoor","title":"The beat goes on!","description":"DJ Johan&Dirk:  Prettig gestoorde beats. Pull up to the bumper, baby…and Shake that booty! Dress-code= sexy like hell","schedule":{"stop":"05:00","limit":"1000","start":"23:00"}},{"location":{"longitude":"3.7300653","latitude":"51.0501111","description":"Protestantse kerk Gent-Centrum, Brabantdam , Gent"},"type":"outdoor","title":"Tentoonstelling van 12 litho's van Willem Vermandere geïnspireerd op de Statenbijbel","description":"Een rustpunt in de drukte, stilte en meditatie, rond 12 houtsneden van Willem Vermandere, tentoongesteld in een voormalige Capucijnenkapel (17e eeuw). Alle dagen open van 14u tot 18u. Meditatieve concerten op 17, 19, 21 en 23 juli, aanvang 17u.","schedule":{"stop":"18:00","limit":"50","start":"14:00"}},{"location":{"longitude":"3.7533519","latitude":"51.0524071","description":"Theater SCALA, Dendermondsesteenweg 163-165, Gent"},"type":"indoor","title":"The Julian's New Orleans Jazz Friends","description":"Aperitiefconcert alle dagen van de Gentse Feesten in de foyer van Theater Scala. In de prijs is een aperitief inbegrepen!","schedule":{"stop":"13:00","limit":"50","start":"10:00"}},{"location":{"longitude":"3.7324861","latitude":"51.0742429","description":"De Buurtloods,, Patrijsstraat 10, Gent"},"type":"outdoor","title":"Casa Bordo","description":"Voklstoneel-komedie in drie bedrijven van Lea Van Volsem. In 't Gents In \"De Buurtlloods\" Patrijsstraat 10, Gent. Mariette wordt de erfgename van een heel speciale erfenis .","schedule":{"stop":"18:00","limit":"50","start":"15:00"}},{"location":{"longitude":"3.7279839","latitude":"51.0580378","description":"secundair kunstintituut - speelplaats - ingang via Baudelohof, Ottogracht 4, Gent"},"type":"outdoor","title":"Elga - Het Panopticum","description":"Elga – Het Panopticum dompelt jou onder in de historiek van Gent waar revolutionaire figuren het voortouw namen. Dit levend museum vind je op de speelplaats van het SKI palend aan het Baudelohof. Een productie in samenwerking met het Vermeylenfonds.","schedule":{"stop":"20:40","limit":"50","start":"20:00"}},{"location":{"longitude":"3.7354626","latitude":"51.0520676","description":"Visart, Visserij 8, Gent"},"type":"outdoor","title":"Tentoonstelling Schilderwerk Michael Samuel Lucifer Vandorpe","description":"Expositie van abstracte landschapsschilderijen, olieverf op canvas. Een selectie schilderijen en nieuw werk van Michael Samuel Lucifer Vandorpe. In Visart, Contemporary VISions on ART. Elke feestendag opendeur van 15 uur tot 20 uur.","schedule":{"stop":"20:00","limit":"50","start":"15:00"}},{"location":{"longitude":"3.7282741","latitude":"51.0560619","description":"Charlatan, Vlasmarkt 6, Gent"},"type":"outdoor","title":"Title","description":"Zaal: Beloftevolle artiest van het Brusselse label On Point – gekend  van de prachtige single ‘Blend’","schedule":{"stop":"00:00","limit":"1000","start":"23:00"}},{"location":{"longitude":"3.6295947","latitude":"51.0671875","description":"Landgoed De Campagne, Gijzelstraat 12, Drongen"},"type":"outdoor","title":"Kinderdans","description":"Samen de wereld ronddansen zowel op moderne- als op wereldmuziek. Voel je de danskriebels al?","schedule":{"stop":"17:30","limit":"50","start":"16:30"}},{"location":{"longitude":"3.7227266","latitude":"51.0576395","description":"Infostand Vizit, Corduwaniersstraat 4, Gent"},"type":"outdoor","title":"Broodje Gent: Culinair Patershol","description":"Wil je eens iets anders dan saaie boterhammen uit je brooddoos? Laat je dan verleiden door Broodje Gent. Wij bezorgen je een originele middagpauze en nemen je twee uurtjes mee het Patershol in.","schedule":{"stop":"14:00","limit":"50","start":"12:00"}},{"location":{"longitude":"3.7397069","latitude":"51.0581571","description":"DOKstrand, Koopvaardijlaan 13B, Gent"},"type":"outdoor","title":"BataStrand","description":"Batastrand, de oase van de Gentse feesten","schedule":{"stop":"00:00","limit":"50","start":"14:00"}},{"location":{"longitude":"3.7254561","latitude":"51.0536709","description":"Belfort, Sint-Baafsplein , Gent"},"type":"outdoor","title":"Bezoek belfort","description":"Gent al eens van bovenaf bekeken? Zeker doen tijdens de Gentse Feesten!","schedule":{"stop":"18:00","limit":"50","start":"10:00"}},{"location":{"longitude":"3.72076","latitude":"51.05471","description":"Aanlegsteiger Gent Watertoerist, Graslei , Gent"},"type":"outdoor","title":"Kindervoorstelling Pappa Langkous","description":"Rondvaart in de binnenstad met Pappa Langkous.De Gentse kinderen krijgen een stoomcursus Langkous-amusement.  Vertek : 15 u Graslei - Gent-Watertoerist  Prijs : € 6,00/kind (-12 jaar)- € 10,00/Volw. met een gratis Vedett bier. Reservatie verplicht.","schedule":{"stop":"16:00","limit":"50","start":"15:00"}},{"location":{"longitude":"3.7187391","latitude":"51.0535642","description":"Sint-Michielskerk, Sint-Michielsplein 1, Gent"},"type":"outdoor","title":"Wilhelmina Fanfare (NL - Hoogeloon)","description":"Fanfare","schedule":{"stop":"17:30","limit":"1000","start":"16:30"}},{"location":{"longitude":"3.7022031","latitude":"51.0583924","description":"Bij' De Vieze Gasten, Haspelstraat 31, Gent"},"type":"indoor","title":"De Propere in concert!","description":"Vorig jaar palmde De Propere Fanfare nog het Sint-Jacobsplein in, met tal van gastfanfares. Dit jaar kiest de fanfare voor een optreden thuis: Bij’ De Vieze Gasten dus.","schedule":{"stop":"23:55","limit":"1000","start":"20:30"}},{"location":{"longitude":"3.7151519","latitude":"51.0439708","description":"Bijlokesite, Godshuizenlaan 2, Gent"},"type":"outdoor","title":"Daniel Lanois' Black Dub ft. Trxie Withley & Brian Blade","description":"Black Dub is het project dat topproducer en rasmuzikant Daniel Lanois samen met drummer Brian Blade en de (halve) Gentse – enig chauvinisme is ons niet vreemd – Trixie Whitley op poten zette.","schedule":{"stop":"00:00","limit":"5000","start":"22:30"}},{"location":{"longitude":"3.7294696","latitude":"51.0578349","description":"Baudelopark, Bibliotheekstraat 7, Gent"},"type":"outdoor","title":"Crache Coeur (Cie du Grand Frisson, BE)","description":"Een zwerver doolt door de straten. Hij sleurt stukken van zijn verleden mee, waanbeelden uit het heden en dromen voor de toekomst. Hij manipuleert alles wat zijn weg kruist. Fascinerend onderzoek naar de mogelijkheden van jonglerie.","schedule":{"stop":"18:35","limit":"1000","start":"18:00"}},{"location":{"longitude":"3.7272136","latitude":"51.059811","description":"park Willem de Beersteeg, Willem de Beersteeg , Gent"},"type":"outdoor","title":"BataMatiQ","description":"These are Modern Times. Ook cirQ blijft bij de tijd. Deze zomer draait de vertierindustrie op volle toeren dankzij BataMatiQ. Automatisch amusement voor de meerwaardezoeker.","schedule":{"stop":"00:00","limit":"1000","start":"15:00"}},{"location":{"longitude":"3.7282741","latitude":"51.0560619","description":"Charlatan, Vlasmarkt 6, Gent"},"type":"outdoor","title":"Top Of The Pops","description":"Barbaar: 80' hits & kitsch met Dj’s The Whatevers & Turbo Dave","schedule":{"stop":"05:55","limit":"1000","start":"00:00"}},{"location":{"longitude":"3.7036577","latitude":"51.0475162","description":"Zaal van K. Roeivereniging Sport Gent, Kanodreef 1, Gent"},"type":"indoor","title":"CAFE CHANTANT (ne kier wa anders) met Fred Geirnaert en Ronny Marino","description":"Met Fred Geirnaert en Ronny Marino","schedule":{"stop":"13:00","limit":"100","start":"11:00"}},{"location":{"longitude":"3.7278414","latitude":"51.0554501","description":"KANTL, Koningstraat 18, Gent"},"type":"indoor","title":"Mijn pappie is enkel een foto.   (Miserie, onnoemelijk veel miserie verpakt in meezingers van een onweerstaanbare lichtheid!) advies: Wouter Deprez","description":"Denkt u bij De Zangeres Zonder Naam aan suiker, plastic rozen en pathos? Zie dan hoe Frank Cools in dit heerlijk repertoire duikt: zonder ironie en recht vanuit dat grote hart van hem. Het plezierigste verdriet dat u ooit proefde! Olé!!","schedule":{"stop":"22:30","limit":"100","start":"21:30"}},{"location":{"longitude":"3.7285385","latitude":"51.0557895","description":"Kinky Star, Vlasmarkt 9, Gent"},"type":"outdoor","title":"Paardenmakers","description":"De Paardenmakers groeten u!","schedule":{"stop":"05:00","limit":"50","start":"23:00"}},{"location":{"longitude":"3.7214225","latitude":"51.0515844","description":"Hotel d'Hane Steenhuyse, Veldstraat 55, Gent"},"type":"indoor","title":"Rondleidingen in Hotel d'Hane Steenhuyse","description":"Uitzonderlijk kan het Hotel d'Hane Steenhuyse - een 18de-eeuws stadspaleis - onder begeleiding van een gids worden bezocht.","schedule":{"stop":"16:30","limit":"100","start":"15:30"}},{"location":{"longitude":"3.7169582","latitude":"51.0499472","description":"café de loge, Annonciadenstraat 5, Gent"},"type":"indoor","title":"De muzikant zit in de put","description":"Enkele intieme akoestische concertjes, tête à tête met de muzikant(en) in de zitput, het salon, het binnenterras of een ander hoekje van café de loge.","schedule":{"stop":"19:00","limit":"50","start":"18:00"}},{"location":{"longitude":"3.7490044","latitude":"51.0538634","description":"Kring Heilig Hart, Heilig-Hartstraat 2, Sint-Amandsberg"},"type":"outdoor","title":"Lancelot & Genoveva","description":"Een amateur gezelschap krijgt een opdracht van een Vlaamse Televisie zender om een middeleeuws spektakel te brengen. Zij hebben één week de tijd om dit te realiseren. Al gauw lopen de repetities in het honderd. Auteur & Regie: Frans De Bruyckere","schedule":{"stop":"17:30","limit":"50","start":"15:00"}},{"location":{"longitude":"3.7466023","latitude":"51.0565888","description":"Begijnhofkerk Sint-Elisabeth, Groot Begijnhof 67, Sint-Amandsberg"},"type":"outdoor","title":"Diafaan V. Hedendaagse glaskunst in het Sint-Elisabethbegijnhof te Sint-Amandsberg","description":"Rondleiding in de tentoonstelling 'Diafaan V' waarbij op verschillende locaties in het begijnhof van Sint-Amandsberg, die voor de gelegenheid opengesteld zijn, glaskunstenaars hun werk tentoon stellen.","schedule":{"stop":"17:00","limit":"50","start":"15:00"}},{"location":{"longitude":"3.7169339","latitude":"51.0522058","description":"Monasterium PoortAckere, Oude Houtlei 56, Gent"},"type":"indoor","title":"De Professor","description":"Mario Fernandez brengt een grappige en leerrijke goochelvoorstelling met een \"échte professor\". Hij doet proeven en toont zijn laatste uitvindingen. Een fascinerende cocktail van proefjes en interessante trucs!  Vanaf 5 jaar.","schedule":{"stop":"15:15","limit":"100","start":"14:30"}},{"location":{"longitude":"3.7254561","latitude":"51.0536709","description":"Lakenhalle, Sint-Baafsplein , Gent"},"type":"indoor","title":"Wouter Berlaen","description":"Muziek - www.berlaen.be","schedule":{"stop":"12:30","limit":"100","start":"11:30"}},{"location":{"longitude":"3.7294696","latitude":"51.0578349","description":"Baudelopark, Bibliotheekstraat 7, Gent"},"type":"outdoor","title":"Les Argentijnse Tango","description":"Pol Van Assche van de vzw Polariteit leert je op een aangename manier de basisstappen en -figuren aan van deze verleidingsdans aan. Laat via de Tango de passie toe in je leven !","schedule":{"stop":"19:00","limit":"100","start":"18:00"}},{"location":{"longitude":"3.724129","latitude":"51.036375","description":"Museum voor Dierkunde, Karel Lodewijk Ledeganckstraat 35, Gent"},"type":"outdoor","title":"Armoede is een troef","description":"Arme biotopen vertonen een rijke biodiversiteit. Alleen daar waar de economisch gedreven mens zich bemoeit, verarmt de natuur drastisch. Ingang via Plantentuin","schedule":{"stop":"12:00","limit":"50","start":"09:00"}},{"location":{"longitude":"3.7262869","latitude":"51.0592791","description":"Kromme Wal - Sluizeken, Krommewal , Gent"},"type":"outdoor","title":"Schuune vrie schuune.     Kano-tocht met Spierke van Gent","description":"Schelde,Leie,Lieve,Ketelvaart,echt de moeite waard.sPier van Gent is dus present.Zingen is zeker een must,kano-peddelen vol hartenlust.Een trip met je gezin zie je er ook iets in? bij vvk :kinderen (-10j):3 euro(-16j):5 euro !!","schedule":{"stop":"15:45","limit":"100","start":"14:00"}},{"location":{"longitude":"3.6295947","latitude":"51.0671875","description":"Landgoed De Campagne, Gijzelstraat 12, Drongen"},"type":"outdoor","title":"Spel en dans","description":"Met leeftijdsgenoten kennismaken via enkele spelletjes en dansjes op leuke muziek.","schedule":{"stop":"14:30","limit":"50","start":"13:30"}},{"location":{"longitude":"3.7251237","latitude":"51.0559253","description":"Hof Van Ryhove, Onderstraat 20, Gent"},"type":"indoor","title":"Cartoontentoonstelling \"Selecte (Gentsche) humor\"","description":"Gentse e.a. cartoonisten stellen voor uit hun eigen werk.","schedule":{"stop":"15:00","limit":"100","start":"11:00"}},{"location":{"longitude":"3.7198035","latitude":"51.052799","description":"Het Pand, Onderbergen 1, Gent"},"type":"outdoor","title":"Speciale rondleiding ‘Achter de schermen’ in de Etnografische Verzamelingen.","description":"Hoe wordt een voorwerp een museumstuk? Komt elke gift in een vitrine? Werp eens een blik in de reserves. Pas zelf een paar witte handschoenen en betast eens een voorwerp en kom meer te weten over conservatie.   Plaatsen beperkt; reserveren verplicht!","schedule":{"stop":"12:30","limit":"50","start":"11:00"}},{"location":{"longitude":"3.7314442","latitude":"51.0514757","description":"Binnentuin Vlerickschool, Seminariestraat 10, Gent"},"type":"outdoor","title":"Het Gentse Montmartre - Vlerickschool","description":"een rustpunt in de drukte van de Gentse feesten. Een plein met een authentiek kader. U kan er rustig flaneren tussen de kunstenaars en luisteren naar Franse chansons. Genieten van optredens door zangers en goochelaar. Brunch vanaf 10h","schedule":{"stop":"23:50","limit":"50","start":"10:00"}},{"location":{"longitude":"3.7213135","latitude":"51.0567346","description":"Sint-Veerleplein /, Gent"},"type":"outdoor","title":"Sherlock Holmes in het Patershol (zoektocht zonder gids)","description":"Zoektocht in 1 van Gents oudste en gezelligste wijken. Aan de hand van een leidraad, vragen en raadsels leer je het Patershol beter kennen. Boekje te koop: Kunstglasramen Mestdagh, Drabstr. 2","schedule":{"stop":"00:00","limit":"50","start":"00:00"}},{"location":{"longitude":"3.7253208","latitude":"51.0545313","description":"Stadhuis, Botermarkt 1, Gent"},"type":"outdoor","title":"Stadhuis van Gent","description":"Geleid bezoek aan het Stadhuis met aandacht voor Rechtspraak en Gerechtigheid. In samenwerking met de Dienst Monumentenzorg en Architectuur. Inschrijven niet nodig.","schedule":{"stop":"16:25","limit":"50","start":"15:30"}},{"location":{"longitude":"3.7533519","latitude":"51.0524071","description":"Theater SCALA, Dendermondsesteenweg 163-165, Gent"},"type":"outdoor","title":"GATE 7 , De Musical","description":"Jongerenmusical","schedule":{"stop":"22:45","limit":"1000","start":"21:00"}},{"location":{"longitude":"3.7183287","latitude":"51.0583441","description":"Tinnenpot, Tinnenpotstraat 21, Gent"},"type":"outdoor","title":"Joelia!","description":"Asjemenu speelt 'Joelia!' rond het verhaal van Romeo en Julia, bewerkt naar kinderen vanaf 4 jaar. Joelia! is een interactieve voorstelling, na 40 minuten theater- en poppenspel worden de kinderen uitgenodigd om mee te spelen.","schedule":{"stop":"15:40","limit":"100","start":"15:00"}},{"location":{"longitude":"3.7151519","latitude":"51.0439708","description":"Bijlokesite, Godshuizenlaan 2, Gent"},"type":"outdoor","title":"BackBack","description":"Het flamboyante Gentse trio rond gitarist Filip Wauters, BackBack, is al een geruime tijd een gevestigde waarde in het Clubcircuit. Ze slagen erin om enkel met gitaar, drums en sax een unieke en krachtige sound neer te zetten.","schedule":{"stop":"17:45","limit":"5000","start":"16:30"}},{"location":{"longitude":"3.7183287","latitude":"51.0583441","description":"Theater Tinnenpot, Balkonzaal, Tinnenpotstraat 21, Gent"},"type":"indoor","title":"ImproComedy","description":"Sprankelende improvisatiecomedy. Comedy staat voorop: de grap, de lach, de hilariteit. Met snelle, snedige en verrassende scènes. Make your day with The Lunatics. Ze behoren tot de top van het improvisatietheater in Vlaanderen.","schedule":{"stop":"23:00","limit":"1000","start":"22:00"}},{"location":{"longitude":"3.7231493","latitude":"51.0585945","description":"Binnenkoer Europees Figurenteatercentrum, Trommelstraat 1, Gent"},"type":"outdoor","title":"Luk Vincentprijs voor jong Talent","description":"Jong Talent, Voorstelling van beginnende figurentheaterspelers","schedule":{"stop":"15:30","limit":"1000","start":"15:00"}},{"location":{"longitude":"3.7251237","latitude":"51.0559253","description":"Hof Van Ryhove, Onderstraat 20, Gent"},"type":"indoor","title":"Improvizeer Improvizeert","description":"Dit geweldige improvisatiegezelschap zakt maar één keer af naar de Gentse Feesten. Ze brengen opnieuw knappe humoristische sketches, die ze allemaal ter plekke bedenken. Vorig jaar verplichtte een uitverkochte zaal hen tot verschillende bis-nummers!","schedule":{"stop":"21:15","limit":"100","start":"20:00"}},{"location":{"longitude":"3.7268065","latitude":"51.0515278","description":"Provinciehuis, Gouvernementstraat 1, Gent"},"type":"indoor","title":"TAPtoe - TapTOE","description":"Een tentoonstelling van het erfgoed van het Gentse Figurentheater Taptoe. Een archiefkamer, een muziekkamer en de 10 topstukken geven een mooie inkijk in de boeiende carrière van Taptoe. Een theatrale setting met meer dan 200 poppen in het provinciehuis.","schedule":{"stop":"17:00","limit":"100","start":"10:00"}},{"location":{"longitude":"3.7279839","latitude":"51.0580378","description":"secundair kunstintituut - speelplaats - ingang via Baudelohof, Ottogracht 4, Gent"},"type":"outdoor","title":"Elga - Het Panopticum","description":"Elga – Het Panopticum dompelt jou onder in de historiek van Gent waar revolutionaire figuren het voortouw namen. Dit levend museum vind je op de speelplaats van het SKI palend aan het Baudelohof. Een productie in samenwerking met het Vermeylenfonds.","schedule":{"stop":"17:40","limit":"50","start":"17:00"}},{"location":{"longitude":"3.7165927","latitude":"51.0432035","description":"A Capella Kaffee, Godshuizenlaan 33, Gent"},"type":"outdoor","title":"Natte stadswandeling met Lunch i.s.m. Rederij De Gentenaer","description":"Nieuwe unieke, folklorische wandeling in de stad van Gent met Dille. Of op afspraak !","schedule":{"stop":"13:30","limit":"50","start":"10:30"}},{"location":{"longitude":"3.72392","latitude":"51.05039","description":"Kiosk, Kouter /, Gent"},"type":"outdoor","title":"Verliefd, verloofd, getrouwd - een amoureuze stadswandeling","description":"Amor en Cupido nemen je mee langs de meest verdoken romantische plekjes van de stad. Onderweg vertellen ze alles over het liefdesleven van bekende en minder bekende Gentenaars.","schedule":{"stop":"12:00","limit":"50","start":"10:00"}},{"location":{"longitude":"3.7226146","latitude":"51.0569531","description":"Aanlegsteiger Boat in Gent, bij Gravensteen (50m), Kraanlei , Gent"},"type":"outdoor","title":"Boottocht \"Gent Compleet\" + gratis ijsje. Duur: 90 min.","description":"Gegidste boottocht op Leie, Lieve, Ketelvaart & Schelde. Ook doorvaart onder 't Laurentplein. 1000 jaar architectuur en verhalen op het parcours. Tickets afhalen van vanaf 1 uur vóór afvaart, ten laatste 15 minuten vóór afvaart.","schedule":{"stop":"15:30","limit":"1000","start":"14:00"}},{"location":{"longitude":"3.72","latitude":"51.05665","description":"S.M.A.K., Citadelpark 2, Gent"},"type":"outdoor","title":"Carlos Rodriguez-Méndez | Agua Caliente/Hot Water","description":"De Spaanse kunstenaar Carlos Rodríguez-Méndez plaatst een reusachtige minimale sculptuur in de Kunst Nu-ruimte van S.M.A.K.","schedule":{"stop":"18:00","limit":"50","start":"10:00"}},{"location":{"longitude":"3.7271842","latitude":"51.0562813","description":"Café Trefpunt, Bij Sint-Jacobs 18, Gent"},"type":"outdoor","title":"Gent, rebelse stad!","description":"Gent heeft altijd een dwars en rebels karakter gehad; Dit uitte zich in vele opstanden en oproeren tegen externe en interne machthebbers. In deze wandeling tonen we u aan dat Gent inspiratie geweest is voor nieuwe vormen om het gezag te tarten.","schedule":{"stop":"16:00","limit":"50","start":"14:00"}},{"location":{"longitude":"3.7287123","latitude":"51.0599955","description":"Minnemeers (NT2Gent), Minnemeers 9, Gent"},"type":"outdoor","title":"Er is geen linkse kerk wel een rechtse, en de rechtse kerk domineer het publieke debat","description":"met o.a. Jan Blommaert en Eric Corijn","schedule":{"stop":"18:00","limit":"50","start":"14:00"}},{"location":{"longitude":"3.7254561","latitude":"51.0536709","description":"Belfort, Sint-Baafsplein , Gent"},"type":"outdoor","title":"Kleurwedstrijd","description":"Doorlopend kleurwedstrijd voor de kinderen; tekeningen, papier en wasco's liggen ter beschikking. De winnaars krijgen persoonlijk een brief van de slotenmaker...","schedule":{"stop":"18:00","limit":"50","start":"10:00"}},{"location":{"longitude":"3.7231493","latitude":"51.0585945","description":"EFTC , Trommelstraat 1 te Gent, Trommelstraat 1, Gent"},"type":"indoor","title":"Ambassaderus van de Gensche Leute","description":"Spraakmakende gesprekken met opvallende Gentenaars","schedule":{"stop":"14:00","limit":"100","start":"13:00"}},{"location":{"longitude":"3.7546023","latitude":"51.0410004","description":"Feldenkrais Gent, Kliniekstraat 69, Gentbrugge"},"type":"indoor","title":"Durven","description":"Moshé Feldenkrais definieerde « gezond zijn” als de mogelijkheid om in de richting van onze dromen te durven gaan. De Feldenkrais methode is een middel tot zelfkennis dat toelaat de kwaliteit van ons leven te verbeteren.","schedule":{"stop":"16:30","limit":"50","start":"10:30"}},{"location":{"longitude":"3.7282741","latitude":"51.0560619","description":"Charlatan, Vlasmarkt 6, Gent"},"type":"outdoor","title":"J To The C & The Bad Mothas","description":"Zaal: Lid van Dj Grazzhoppa’s Big Band – De Vlaamse Jamie Lidell","schedule":{"stop":"23:00","limit":"1000","start":"22:00"}},{"location":{"longitude":"3.7234722","latitude":"51.0574921","description":"Het Huis van Alijn, Kraanlei 65, Gent"},"type":"outdoor","title":"Chansons à la carte met Guido Belcanto en Derek","description":"Van Derek weten we al langer dat hij graag in het Frans zingt, maar dat ook Guido Belcanto een zwak heeft voor het Franse lied is een groter geheim! Samen met muzikanten Yves Meersschaert en Mario Vermandel brengen ze hun favoriete Franstalige chansons.","schedule":{"stop":"19:00","limit":"1000","start":"17:30"}},{"location":{"longitude":"3.7198035","latitude":"51.052799","description":"Het Pand, Onderbergen 1, Gent"},"type":"outdoor","title":"Tangram en andere traditionele kinderspelletjes uit China in de Etnografische Verzamelingen","description":"TANGRAM is een Chinees legspel waarbij figuren kunnen worden gevormd uit geometrische stukken. Met zo’n puzzelstuk in de hand speuren en spelen tussen de museumstukken en in de omsloten kloostertuin.   Ouders zijn welkom!","schedule":{"stop":"15:30","limit":"50","start":"14:00"}},{"location":{"longitude":"3.72","latitude":"51.05665","description":"Zuidpark, Woodrow Wilsonplein , Gent"},"type":"outdoor","title":"De Geheimen van Gent","description":"Los jij solo, in duo of met je team van detectives de moord op Brocante Julos op, die alles te maken heeft met ‘de geheimen van Gent’? De winnaar van dit stadsspel-moordspel zal beloond worden met het teruggevonden paneel de Rechtvaardige Rechters!","schedule":{"stop":"19:00","limit":"50","start":"14:00"}},{"location":{"longitude":"3.7227266","latitude":"51.0576395","description":"Infostand Vizit, Corduwaniersstraat 4, Gent"},"type":"outdoor","title":"Arm Gent","description":"Gent mag terugkijken op een roemrijk verleden, maar hoe ging de stad doorheen de tijden om met armoede? Bedel wat geld bij elkaar voor schoenen, en treed even in de voetsporen van 'de kleine man' aan de zelfkant van de maatschappij.","schedule":{"stop":"12:00","limit":"50","start":"10:30"}},{"location":{"longitude":"3.72","latitude":"51.05665","description":"Museum voor Schone Kunsten, Citadelpark , Gent"},"type":"outdoor","title":"ZOEKTOCHT VLIEG! voor kinderen van 6 tot 12 jaar","description":"Zoek aan de hand van vijf tips de schat van Vlieg! in het Museum voor Schone Kunsten","schedule":{"stop":"18:00","limit":"50","start":"10:00"}},{"location":{"longitude":"3.7270706","latitude":"51.0564691","description":"Sint-Jacobskerk, Bij Sint-Jacobs , Gent"},"type":"outdoor","title":"Tentoonstelling Leo De Budt","description":"Het onbekend religieus oeuvre van striptekenaar Leo De Budt, vader van \"Thomas Pips\"","schedule":{"stop":"17:30","limit":"1000","start":"14:30"}},{"location":{"longitude":"3.72","latitude":"51.05665","description":"ajuinlei, Ajuinlei 00, Gent"},"type":"outdoor","title":"tweedehands boekenmarkt langs de Ajuinlei","description":"Verkoop van tweedehands boeken langs de Ajuinlei elke zondag van 10u00 tot 18u00","schedule":{"stop":"18:00","limit":"1000","start":"10:00"}},{"location":{"longitude":"3.6295947","latitude":"51.0671875","description":"Landgoed De Campagne, Gijzelstraat 12, Drongen"},"type":"outdoor","title":"Crea-atelier & volksspelen - dag 1","description":"Met strijkkralen een decoratief kunstwerkje maken; een leuke auto, een bruine beer of een mooie prinses ... alles is mogelijk. Diverse volksspelen met daaraan verbonden een kleine verassing.","schedule":{"stop":"16:15","limit":"50","start":"14:45"}},{"location":{"longitude":"3.7227266","latitude":"51.0576395","description":"Infostand Vizit, Corduwaniersstraat 4, Gent"},"type":"outdoor","title":"Dineren in 't Prinsenhof","description":"We kuieren door het Prinsenhof en duiken in een verleden van hertogen, industriebaronnen én paters. De Augustijnen stellen hun deuren open en nodigen ons uit voor het diner. Ook voor aperitief en dessert worden we op ongewone locaties verwacht.","schedule":{"stop":"21:00","limit":"50","start":"18:00"}},{"location":{"longitude":"3.7169339","latitude":"51.0522058","description":"Monasterium Poortackere, Oude Houtlei 56, Gent"},"type":"indoor","title":"Lupa Luna","description":"Het nieuwe project van Greet Garriau met Sam Van Ingelgem, Thomas Noël en all-round muzikant Geert Waegeman.","schedule":{"stop":"23:30","limit":"1000","start":"22:00"}},{"location":{"longitude":"3.7278414","latitude":"51.0554501","description":"KANTL, Koningstraat 18, Gent"},"type":"outdoor","title":"Openingsconcert Gabrielle Sultana","description":"Gabriella Sultana speelt Prokofieff, Beethoven, Debussy Cammileri","schedule":{"stop":"17:00","limit":"50000","start":"16:00"}},{"location":{"longitude":"3.72","latitude":"51.05665","description":"Museum voor Schone Kunsten, Citadelpark , Gent"},"type":"outdoor","title":"AUDIOGIDSEN GRATIS - volwassenen en kinderen","description":"Audiogidsen GRATIS voor volwassenen en kinderen tijdens GF","schedule":{"stop":"18:00","limit":"50","start":"10:00"}},{"location":{"longitude":"3.7209076","latitude":"51.0534952","description":"Sint Michielsbrug, Predikherenlei 2, Gent"},"type":"outdoor","title":"Romantic Paddling","description":"Romantische rondvaart in de oude Gentse binnenstad met een Canadese kano, al dan niet voorzien van een bubbeltje.  Voor mensen met een sportieve ingesteldheid en zin voor avontuur en cultuur.","schedule":{"stop":"19:00","limit":"50","start":"10:00"}},{"location":{"longitude":"3.7287123","latitude":"51.0599955","description":"MIAT, Minnemeers 9, Gent"},"type":"outdoor","title":"Middeleeuws ontbijt en Ontbijt bij Lieven Bauwens","description":"Een arm en een rijk ontbijt, een ontbijt bij Lieven Bauwens. En nieuw dit jaar: een kinderontbijt! Steeds een goede start voor een dag Gentse Feesten. Geen reservatie mogelijk. Wie voor 11.30 uur aanwezig is, wordt zeker bediend. Prijs €5, €9 of €11.","schedule":{"stop":"11:30","limit":"1000","start":"08:30"}},{"location":{"longitude":"3.7234722","latitude":"51.0574921","description":"Het Huis van Alijn, Kraanlei 65, Gent"},"type":"outdoor","title":"Kantdemonstraties door de kantclub Sint-Katelijne","description":"Stropkant, Cluny, florence, Russische kant, moderne kant, bloemwerk, duchesse kant of Vlaamse kant: de leden van de kantclub hebben het allemaal in hun vingers!","schedule":{"stop":"12:00","limit":"1000","start":"10:00"}},{"location":{"longitude":"3.7264272","latitude":"51.0569408","description":"Lakenmetershuis/Willemsfonds -Vrijdagsmarkt, Vrijdagmarkt 24-25, Gent"},"type":"indoor","title":"Vier zonder ruuk deur 't Spelleke van Dei Kluite","description":"Een nieuwe revue, veur alle  gruute kientsjes die Gent kenne en Gents verstoan mee stijte muile Pierke Pierlala in d'uuftrolle.","schedule":{"stop":"23:30","limit":"1000","start":"22:00"}},{"location":{"longitude":"3.7271842","latitude":"51.0562813","description":"Café Trefpunt, Bij Sint-Jacobs 18, Gent"},"type":"outdoor","title":"Bij de buren op bezoek!","description":"Een wandeling door de wijk Sluizeken met bezoek aan een Turkse kruidenier en bazaar. De wijk illustreert de samenlevingsopbouw met vallen en opstaan van twee culturen. In de moskee hoort u het verhaal over het beleven van de Islam door Gentse moslims.","schedule":{"stop":"17:00","limit":"50","start":"14:00"}},{"location":{"longitude":"3.7201238","latitude":"51.054856","description":"Aanlegsteiger De Bootjes van Gent-Rederij Dewaele, Korenlei , Gent"},"type":"outdoor","title":"Historische rondvaart doorheen het middeleeuwse Gent + gratis ijsje. Duur: 40 min.","description":"Rondvaart met gids op Leie en Lieve. Om de de 15 minuten vertrekt er een bootje. Reservatie: niet nodig, tenzij voor groepen.","schedule":{"stop":"00:00","limit":"1000","start":"10:00"}},{"location":{"longitude":"3.72","latitude":"51.05665","description":"10 Days Off - Vooruit, Sint-Pietersnieuwstraat , Gent"},"type":"outdoor","title":"Robag Whrume (GER)","description":"De ene helft van het Wighnomy-duo. De man houdt van zweverige ritmes, gedrenkt in reverbs en omgeven door jazzy danwel abstracte melodieën.Tijdloos? Luistertechno? Misschien wel, maar vervelen zal het geen seconde. Gewoon de voetjes van de vloer dus.","schedule":{"stop":"05:55","limit":"5000","start":"23:00"}},{"location":{"longitude":"3.702715","latitude":"51.0662256","description":"Museum Dr. Guislain, Jozef Guislainstraat 43, Gent"},"type":"indoor","title":"Outsiders: kunst in de marge","description":"De werelden van kunst en waanzin hebben elkaar doorheen de geschiedenis met regelmaat geïnspireerd. Outsiderkunstenaars maken eigenzinige omzwervingen door de wereld van kunst, esthetiek en creativiteit.","schedule":{"stop":"17:00","limit":"100","start":"13:00"}},{"location":{"longitude":"3.6951777","latitude":"51.057712","description":"Charles de L'Epéeplein , Gent"},"type":"outdoor","title":"Boerenmarkt - Charles de l' Epéeplein","description":"Boerenmarkt","schedule":{"stop":"12:30","limit":"50","start":"08:00"}},{"location":{"longitude":"3.7294696","latitude":"51.0578349","description":"Baudelopark, Bibliotheekstraat 7, Gent"},"type":"outdoor","title":"Circusworkshops voor kinderen (6-12 jaar)","description":"Wil je zelf circusartiest worden? Dat kan! Onder ervaren begeleiding van Circusplaneet kan je gratis allerlei zotte circustechnieken uitproberen: luchtacrobatie, jongleren, diabolo, ... Gelieve vooraf in te schrijven aan het onthaal.","schedule":{"stop":"18:00","limit":"50","start":"15:00"}},{"location":{"longitude":"3.7151519","latitude":"51.0439708","description":"Bijlokesite, Godshuizenlaan 2, Gent"},"type":"outdoor","title":"Morcheeba","description":"Onder het motto ‘back to basics’ presenteerde het triphop-trio Morcheeba in 2010 een gloednieuw album ‘Blood Like Lemonade’.","schedule":{"stop":"21:45","limit":"5000","start":"20:30"}},{"location":{"longitude":"3.7234777","latitude":"51.0520041","description":"Universiteit Gent Aula, Voldersstraat 9, Gent"},"type":"outdoor","title":"Tentoonstelling ‘Van paardenmiddel tot paardendokter’, over de geschiedenis van de paardengeneeskunde","description":"Wat hebben een skelet, elixirs en heiligenaanroepingen met elkaar gemeen? Weinig op het eerste zicht, en toch. Ze hebben allen een plaats in de unieke tentoonstelling over de geschiedenis van de paardengeneeskunde, een bijzonder boeiende wetenschap.","schedule":{"stop":"18:00","limit":"100","start":"11:00"}},{"location":{"longitude":"3.7394541","latitude":"51.0493207","description":"Steinerschool, Kasteellaan 54, Gent"},"type":"outdoor","title":"De koning zonder schoenen","description":"Een kleutervoorstelling over verdriet, hoop en geluk.  Over geven en krijgen en dat rijkdom veel meer is dan rijk zijn. Meer info? http://www.4hoog.be/pages/productie_kzs.html","schedule":{"stop":"16:00","limit":"100","start":"15:00"}},{"location":{"longitude":"3.7285361","latitude":"51.0569984","description":"Beverhoutplein 13, Gent"},"type":"outdoor","title":"Workshop Ken je kleuren","description":"Bij een kleuradvies gaan we op zoek naar de kleuren die in harmonie zijn met uw natuurlijke uitstraling. U leert hoe u er fantastisch kan uitzien en welke combinaties u het meeste flateren.","schedule":{"stop":"17:30","limit":"50","start":"14:30"}},{"location":{"longitude":"3.7198035","latitude":"51.052799","description":"Het Pand, Onderbergen 1, Gent"},"type":"indoor","title":"'Materiële armoede en culturele rijkdom in Afrika' een boeiende ontdekking in de Etnografische Verzamelingen!","description":"In de media wordt het beeld over Afrika bepaald door het cliché van de armoede. Deze expo toont dat Afrikanen creatief zijn in het zoeken van oplossingen om materiële armoede te overstijgen.","schedule":{"stop":"17:00","limit":"50","start":"11:00"}},{"location":{"longitude":"3.72","latitude":"51.05665","description":"Refter van de Sint-Baafsabdij, Gandastraat zn, Gent"},"type":"outdoor","title":"Philippe Pierloot, viola da gamba & Romina Lischka, viola da gamba","description":"Hume, Corkine, Locke, De Ste Colombe, Schenck","schedule":{"stop":"16:30","limit":"1000","start":"15:00"}},{"location":{"longitude":"3.7253208","latitude":"51.0545313","description":"Stadhuis, Botermarkt 1, Gent"},"type":"outdoor","title":"Het Stadhuis. Vrij bezoek.","description":"Vanaf de middeleeuwen tot de Brabantse Omwenteling bestuurden 2 schepenbanken de stad: de schepenen van de Keure en van Gedele. Zij hadden een rechterlijke functie maar waren ook verantwoordelijk voor het dagelijks bestuur en de financiën.","schedule":{"stop":"19:00","limit":"1000","start":"14:00"}},{"location":{"longitude":"3.7171145","latitude":"51.0555274","description":"School van Toen, Klein Raamhof 8, Gent"},"type":"outdoor","title":"Tentoonstelling : \" Spiegeltje spiegeltje aan de wand...\"","description":"Een tentoonstelling waarbij we teruggaan naar het jaar 1925.Een presentatie uit de collectie van handgemaakte kleren en fantastische hoeden van Vivien Delbaere.","schedule":{"stop":"17:00","limit":"50","start":"14:00"}},{"location":{"longitude":"3.7201238","latitude":"51.054856","description":"Aanlegsteiger De Bootjes van Gent-Rederij Dewaele, Korenlei , Gent"},"type":"outdoor","title":"Rondvaart \"Gent compleet\" + gratis ijsje. Duur 90 min.","description":"1000 jaar architectuur en verhalen. Leuke & grondige verkenning van héél de stad, met gids per boot. Ook vaart u onder 't Laurentplein. Boottocht op Leie, Lieve, Ketelvaart & Schelde. Tickets afhalen vanaf 1 uur vóór afvaart.","schedule":{"stop":"15:30","limit":"1000","start":"14:00"}},{"location":{"longitude":"3.724129","latitude":"51.036375","description":"Plantentuin van de Universiteit Gent, Karel Lodewijk Ledeganckstraat 35, Gent"},"type":"outdoor","title":"Ginds, tussen de netels - NTGent (BE) - € 15 - € 18","description":"Laat je meeslepen in deze hartverscheurende tragedie vol poëzie en rituelen, gedrenkt in een zuiderse vurigheid over een jonge bruid die op haar huwelijksdag ervan door gaat met haar minnaar. (De voorstelling loopt al vanaf 15 juli)","schedule":{"stop":"22:00","limit":"100","start":"20:30"}},{"location":{"longitude":"3.702715","latitude":"51.0662256","description":"Museum Dr. Guislain, Jozef Guislainstraat 43, Gent"},"type":"indoor","title":"Naar den Congo!","description":"'Naar den Congo!' geeft een overzicht van 100 jaar Broeders van Liefde in Congo. Het vertelt een verhaal van religieuze overtuiging en idealisme, diepe culturele barrières, opbouw en teloorgang, religieuzen en rebellen.","schedule":{"stop":"17:00","limit":"100","start":"13:00"}},{"location":{"longitude":"3.7090273","latitude":"51.0690921","description":"De Kring S.I.V.I, Maïsstraat 20, Gent"},"type":"outdoor","title":"Sissie Parker With Dance Team: Trip Around The World (Travestie Revue)","description":"Nieuwe travestie revue, Trip Around The World. Wij nemen U mee rond de wereld met een dance team en 3 travestie's, vol glitter, dans, en showkostuum's. Een 2 uur durend spektakel. Zaal voorzien van airco en gratis parking.","schedule":{"stop":"23:00","limit":"100","start":"20:00"}},{"location":{"longitude":"3.7171713","latitude":"51.0563648","description":"Pacificatiehuis, Burgstraat 55, Gent"},"type":"outdoor","title":"In de voetsporen van de Vlaamse Beweging in Gent,","description":"Met gastheer : ere-senator Oswald Van Oothegem. We ontdekken historische plekken en figuren in Gent die mee aan de basis lagen van de Vlaamse beweging in Gent.","schedule":{"stop":"12:30","limit":"50","start":"10:30"}},{"location":{"longitude":"3.724129","latitude":"51.036375","description":"Plantentuin UGent, Karel Lodewijk Ledeganckstraat 35, Gent"},"type":"indoor","title":"Ginds, tussen de netels","description":"Dimitri Verhulst ontbeent Lorca's Bloedbruiloft en creërt er een totaal nieuwe voorstelling mee. Hij verplaatst de clanvete naar een denkbeeldig Belgisch dorp, 'de hoofdstad der brandnetels'.","schedule":{"stop":"22:30","limit":"1000","start":"21:00"}},{"location":{"longitude":"3.7334779","latitude":"51.0541863","description":"Ingang Van Eyckzwembad, Veermanplein -, Gent"},"type":"outdoor","title":"Portus Ganda - NIEUW!","description":"De Gentse jachthaven onthult de oudste geschiedenis van de stad: hier werd Gent gesticht, bij de samenvloeiing van Schelde en Leie. Parel van deze buurt is ongetwijfeld de eeuwenoude Sint-Baafsabdij.","schedule":{"stop":"16:00","limit":"50","start":"14:30"}},{"location":{"longitude":"3.7214225","latitude":"51.0515844","description":"Hotel d'Hane Steenhuyse, Veldstraat 55, Gent"},"type":"indoor","title":"Rondleidingen in Hotel d'Hane Steenhuyse","description":"Uitzonderlijk kan het Hotel d'Hane Steenhuyse - een 18de-eeuws stadspaleis - onder begeleiding van een gids worden bezocht.","schedule":{"stop":"18:00","limit":"100","start":"17:00"}},{"location":{"longitude":"3.7214225","latitude":"51.0515844","description":"Hotel d'Hane Steenhuyse, Veldstraat 55, Gent"},"type":"indoor","title":"Kunst ten huize van Valérie van Pottelsberghe de la Potterie.","description":"Het publiek maakt enkele scènes mee uit het leven van gravin Valérie Van Pottelsberghe de la Potterie en haar dochter Lucie in 1888.","schedule":{"stop":"16:00","limit":"50","start":"14:00"}},{"location":{"longitude":"3.7195404","latitude":"51.0574957","description":"NTGent Arca, Sint-Widostraat 4, Gent"},"type":"indoor","title":"Liquid Love Hotel","description":"Een koppel van middelbare leeftijd ontmoet een tegendraads hoertje en een gigolo van weinig woorden. Verborgen agenda’s en een broek vol goesting maken van Liquid Love Hotel een bij momenten hilarische tragikomedie die ook tot nadenken stemt.","schedule":{"stop":"22:05","limit":"1000","start":"20:30"}},{"location":{"longitude":"3.7160307","latitude":"51.0563182","description":"Galerij Nina Stoupina, Burgstraat 101, Gent"},"type":"outdoor","title":"Wat is gastvrijheid","description":"Een lezing door curator Pieter Vermeulen in Galerie Nina Stoupina, met aansluitend een opening Matchbox in het MIAT","schedule":{"stop":"14:00","limit":"50","start":"13:00"}},{"location":{"longitude":"3.7198035","latitude":"51.052799","description":"Het Pand, Onderbergen 1, Gent"},"type":"outdoor","title":"Rondleidingen in de Etnografische Verzamelingen: Levenswijsheid en geluk! Verrassende voorwerpen uit het traditionele China","description":"Enthousiaste gidsen vertellen bijzondere verhalen over voorwerpen uit het vroegere China. Ga mee op avontuur in de rijke wereld van de Aziatische cultuur en kom in contact met de oosterse wijze van denken en leven en raak vertrouwd met hun esthetiek.","schedule":{"stop":"15:30","limit":"50","start":"14:00"}},{"location":{"longitude":"3.723231","latitude":"51.0546855","description":"Bretoens Pannenkoekenhuis Gwenola, Donkersteeg 16, Gent"},"type":"indoor","title":"Café Cantant, Willy Bart en zijne kluts","description":"Nen hutsepot van Gentsche liedjes, Een Bretoens menu: Aperitief, boekweitkoek of pannenkoek en koffie.   Ook reservatie mogelijk in Donkersteeg 16 op maandag, dinsdag en donderdag","schedule":{"stop":"14:30","limit":"100","start":"11:30"}},{"location":{"longitude":"3.7187391","latitude":"51.0535642","description":"Sint-Michielskerk, Sint-Michielsplein 1, Gent"},"type":"outdoor","title":"Muzikale verpozingen 2011 - Tentoonstelling - De horizon voorbij' - schilderwerken van Jan J.M. Van Saene (B - Lede)","description":"In de zijbeuken van de Sint-Michielskerk is er een tentoonstelling rond kunst en religie met schilderwerken van Jan J.M. Van Saene. De tentoonstelling draagt de titel: 'De horizon voorbij'. Vrije toegang.","schedule":{"stop":"18:00","limit":"1000","start":"14:00"}},{"location":{"longitude":"3.7202583","latitude":"51.0556456","description":"Design Museum Gent, Jan Breydelstraat 5, Gent"},"type":"outdoor","title":"Design van 1880 tot vandaag","description":"De collecties 20ste-eeuwse en hedendaagse vormgeving in het Design museum Gent zijn meer dan een ommetje waard. U kan kennismaken met ontwerpen van Van de Velde, Rietveld, Hoffmann, Mendini, Van Severen, Arad, ....","schedule":{"stop":"18:00","limit":"1000","start":"10:00"}},{"location":{"longitude":"3.7394541","latitude":"51.0493207","description":"Steinerschool, Kasteellaan 54, Gent"},"type":"outdoor","title":"De koning zonder schoenen","description":"Een kleutervoorstelling over verdriet, hoop en geluk.  Over geven en krijgen en dat rijkdom veel meer is dan rijk zijn. Meer info? http://www.4hoog.be/pages/productie_kzs.html","schedule":{"stop":"12:00","limit":"100","start":"11:00"}},{"location":{"longitude":"3.7160307","latitude":"51.0563182","description":"Galerij Nina Stoupina, Burgstraat 101, Gent"},"type":"indoor","title":"Straat 27","description":"Werken van Nina Stoupina in haar eigen galerij.","schedule":{"stop":"18:00","limit":"50","start":"14:00"}},{"location":{"longitude":"3.7285385","latitude":"51.0557895","description":"Kinky Star, Vlasmarkt 9, Gent"},"type":"outdoor","title":"Nier van A","description":"Nirvana coverband","schedule":{"stop":"04:00","limit":"50","start":"03:00"}},{"location":{"longitude":"3.7253208","latitude":"51.0545313","description":"Stadhuis, Botermarkt 1, Gent"},"type":"outdoor","title":"Stadhuis van Gent","description":"Geleid bezoek aan het Stadhuis met aandacht voor Rechtspraak en Gerechtigheid. In samenwerking met de Dienst Monumentenzorg en Architectuur. Inschrijven niet nodig.","schedule":{"stop":"17:25","limit":"50","start":"16:30"}},{"location":{"longitude":"3.7287123","latitude":"51.0599955","description":"Minnemeers (NT2Gent), Minnemeers 9, Gent"},"type":"outdoor","title":"Ka-Bal: danstheater met live muziek","description":"Ka-Bal combineert live muziek met dans in telkens drie korte voorstellingen per avond, gebracht door een schare Belgische en internationale artiesten voor wie geen uitdaging te veel is.","schedule":{"stop":"21:00","limit":"50000","start":"20:00"}},{"location":{"longitude":"3.724129","latitude":"51.036375","description":"Plantentuin Universiteit Gent, Karel Lodewijk Ledeganckstraat , Gent"},"type":"indoor","title":"Planten als chemische fabriekjes","description":"Planten produceren primaire metabolieten zoals DNA en eiwitten. Deze zijn essentieel voor de groei. Ze produceren secundaire metabolieten die hun levenskansen vergroten. Van Alkaloiden tot Zetmeel. Wat betekenen ze voor de plant? (Magda De Coninck)","schedule":{"stop":"16:00","limit":"50","start":"14:30"}},{"location":{"longitude":"3.702715","latitude":"51.0662256","description":"Museum Dr. Guislain, Jozef Guislainstraat 43, Gent"},"type":"outdoor","title":"In de marge. Belgische documentaire fotografie","description":"'In de marge' is een topselectie van 22 Belgische documentaire fotografen die zich op de een of andere manier inschrijven in deze geschiedenis en de 'andere kant' van het bestaan aan het licht brengen.","schedule":{"stop":"17:00","limit":"100","start":"13:00"}},{"location":{"longitude":"3.7198035","latitude":"51.052799","description":"Het Pand, Onderbergen 1, Gent"},"type":"outdoor","title":"Tangram en andere traditionele kinderspelletjes uit China in de Etnografische Verzamelingen","description":"TANGRAM is een Chinees legspel waarbij figuren kunnen worden gevormd uit geometrische stukken. Met zo’n puzzelstuk in de hand speuren en spelen tussen de museumstukken en in de omsloten kloostertuin.   Ouders zijn welkom!","schedule":{"stop":"12:30","limit":"50","start":"11:00"}},{"location":{"longitude":"3.72","latitude":"51.05665","description":"S.M.A.K., Citadelpark 2, Gent"},"type":"outdoor","title":"Tomorrow is the Question | Collectie S.M.A.K.","description":"S.M.A.K.stelt een deel van haar omvangrijke collectie tentoon.","schedule":{"stop":"18:00","limit":"50","start":"10:00"}},{"location":{"longitude":"3.7253208","latitude":"51.0545313","description":"Stadhuis, Botermarkt 1, Gent"},"type":"outdoor","title":"'Rechtspraak en gerechtigheid.' Themarondleiding in het Stadhuis.","description":"In het stadhuis werd vroeger recht gesproken. Opvallend is het labyrint in de Pacificatiezaal. Die banmijl kon een aantal keren worden afgelegd als straf voor sommige overtreders van de wet.","schedule":{"stop":"16:15","limit":"50","start":"15:30"}},{"location":{"longitude":"3.7198035","latitude":"51.052799","description":"Het Pand, Onderbergen 1, Gent"},"type":"outdoor","title":"De Etnografische Verzamelingen. De oudste collectie etnografische artefacten van Vlaanderen!","description":"De Etnografische Verzamelingen van de Universiteit, het best bewaarde geheim van Gent, nu weer open voor publiek tijdens de Gentse Feesten!   Collecties van internationaal niveau in een middeleeuws klooster. Met tijdelijke expo's over China en Afrika!","schedule":{"stop":"17:00","limit":"50","start":"11:00"}},{"location":{"longitude":"3.7151519","latitude":"51.0439708","description":"Bijlokesite, Godshuizenlaan 2, Gent"},"type":"outdoor","title":"Red Snapper","description":"Stilistisch gezien bevat Red Snapper’s muziek elementen uit zowel jazz, funk, jungle, trip hop, hip hop en breakbeat, als ook referenties naar vroege psychedelische- en progressieve rock. Niet meteen in één vakje te stoppen dus.","schedule":{"stop":"19:45","limit":"5000","start":"18:30"}},{"location":{"longitude":"3.7272977","latitude":"51.0525587","description":"standbeeld gebroeders Van Eyck (naast kathedraal), Limburgstraat 1, Gent"},"type":"outdoor","title":"Van Eyck vermist (op zoek naar De Rechtvaardige Rechters)","description":"Wandeling door Gent langs de belangrijkste plaatsen in de zaak van de diefstal van het Lam Gods-paneel De Rechtvaardige Rechters, de grootste kunstroof van de 20e eeuw","schedule":{"stop":"18:00","limit":"50","start":"16:30"}},{"location":{"longitude":"3.7234722","latitude":"51.0574921","description":"Het Huis van Alijn, Kraanlei 65, Gent"},"type":"outdoor","title":"Koninklijke Harmonie Sint-Cecilia Merelbeke","description":"Harmonie","schedule":{"stop":"13:00","limit":"1000","start":"11:00"}},{"location":{"longitude":"3.7169582","latitude":"51.0499472","description":"café de loge, Annonciadenstraat 5, Gent"},"type":"indoor","title":"Saskia De Ceuninck","description":"Voor het derde jaar op rij creëerde actrice-regisseuse Saskia De Ceuninck een stuk op maat van café de loge. Ze brengt haar performance tussen de cafégasten","schedule":{"stop":"21:30","limit":"50","start":"20:30"}},{"location":{"longitude":"3.7253208","latitude":"51.0545313","description":"Stadhuis, Botermarkt 1, Gent"},"type":"outdoor","title":"'Rechtspraak en gerechtigheid.' Themarondleiding in het Stadhuis.","description":"In het stadhuis werd vroeger recht gesproken. Opvallend is het labyrint in de Pacificatiezaal. Die banmijl kon een aantal keren worden afgelegd als straf voor sommige overtreders van de wet.","schedule":{"stop":"18:15","limit":"50","start":"17:30"}},{"location":{"longitude":"3.7036577","latitude":"51.0475162","description":"Zaal van K. Roeivereniging Sport Gent, Kanodreef 1, Gent"},"type":"indoor","title":"New Orleans Jazz met The Rudy Balliu  Society Serenaders","description":"Echte,zuivere New Orleans Jazz","schedule":{"stop":"00:00","limit":"100","start":"20:00"}},{"location":{"longitude":"3.72","latitude":"51.05665","description":"10 Days Off - Vooruit, Sint-Pietersnieuwstraat , Gent"},"type":"outdoor","title":"Agoria (Fr)","description":"Minimalistische, subversieve electronica: detroit techno met een Franse house-slag die van Jeff Mills, Kevin Saunderson en Richie Hawtin devote fans maakte.","schedule":{"stop":"05:55","limit":"5000","start":"23:00"}},{"location":{"longitude":"3.7214225","latitude":"51.0515844","description":"Hotel d'Hane Steenhuyse, Veldstraat 55, Gent"},"type":"indoor","title":"De generaelen staet van een goede famielde in Gent","description":"Het publiek maakt enkele scènes mee uit het leven van graaf en gravin d'Hane de Steenhuyse en hun personeel in 1808.","schedule":{"stop":"12:30","limit":"50","start":"10:30"}},{"location":{"longitude":"3.7203432","latitude":"51.05538","description":"Korenlei 1, Gent"},"type":"outdoor","title":"Gent op z'n kookpunt (zoektocht zonder gids)","description":"Wat zat er vroeger in de kookpot? Waarom gebruiken we eigenlijk bestek? Hoe ontstond Gentse waterzooi?   Boekje te koop bij Kunstglasramen Mestdagh, Drabstr. 2","schedule":{"stop":"00:00","limit":"50","start":"00:00"}},{"location":{"longitude":"3.761849","latitude":"51.0359607","description":"Topacademie Sifu Walter Toch, Schooldreef 137, Gentbrugge"},"type":"indoor","title":"Zelfverdedigingtechnieken, Tai-chi, Qi-Gong, Kung-Fu","description":"U kan ingewijd worden in de Oosterse technieken van Shaolin Kung-Fu, tai-chi, Qi-Gong en zelfverdediging o.l.v. Sifu Walter Toch. 46 jaar ervaring en prof. en eerste Westerling met graduaat van Shaolintempel, Song Shan Henan China 1990.","schedule":{"stop":"12:00","limit":"100","start":"09:30"}},{"location":{"longitude":"3.7270658","latitude":"51.048845","description":"Minardschouwburg, Walpoortstraat 15, Gent"},"type":"outdoor","title":"De Mannen","description":"Het sluitstuk van de trilogie ‘de Soprano’s van Ledeberg'","schedule":{"stop":"21:30","limit":"50","start":"20:00"}},{"location":{"longitude":"3.7183287","latitude":"51.0583441","description":"Theater Tinnenpot, Biljartzaal, Tinnenpotstraat 21, Gent"},"type":"indoor","title":"Tenderness forever","description":"Steve woont 11 hoog en heeft 360° zicht op zijn wereld. Met veel energie en humor speelt hij een hele stad vol personages en herbeleeft hij zijn hilarische zoektocht naar 't schoonste meiske van de wereld. Hartverwarmend. Met Bérengère Minnaert op piano.","schedule":{"stop":"23:00","limit":"100","start":"22:00"}},{"location":{"longitude":"3.7123823","latitude":"51.0462502","description":"VIP School, Martelaarslaan 13, Gent"},"type":"outdoor","title":"Prietproat, blabla en andere ziever.","description":"Gentse feestenrevue met grappen en sketches in 't schuun Gents door de Kloaverkes met als onderwerp TAAL in al zijn vormen. De show wordt afgewisseld met liedjes van BETSY en komische goochelacts van het duo ROBINI en BALDARNY. Muziek: Marco's orkest.","schedule":{"stop":"22:45","limit":"50","start":"19:30"}},{"location":{"longitude":"3.7226146","latitude":"51.0569531","description":"Aanlegsteiger Boat in Gent, bij Gravensteen (50m), Kraanlei , Gent"},"type":"outdoor","title":"Boottocht met Hanneke Tanneke Toverheks + gratis ijsje. Duur 40 min.","description":"Vaar mee met Hanneke Tanneke: een lelijke, vrolijke, superslordige heks die de Gentse wateren tijdens de Feesten onveilig maakt. Kleuters en kinderen tot 8 jaar helpen Hanneke om een heel speciale toverdrank te brouwen.","schedule":{"stop":"16:40","limit":"1000","start":"16:00"}},{"location":{"longitude":"3.72","latitude":"51.05665","description":"Domzaal - Kunstencentrum Vooruit, Sint-Pietersnieuwstraat 23, Gent"},"type":"outdoor","title":"Jonas Van Thielen - Live Achievement (try-out)","description":"Theatermaker/acteur Jonas Van Thielen (bekend van o.a. De  Laatste Show) brengt in zijn nieuwe voorstelling hulde aan een fantastisch persoon: zichzelf!","schedule":{"stop":"21:00","limit":"1000","start":"19:30"}},{"location":{"longitude":"3.717214","latitude":"51.0595882","description":"Cultuurkapel, Sint-Antoniuskaai 10, Gent"},"type":"indoor","title":"Tès Goe Weere, Vrie Goe Weere, bij Goe Weere","description":"Shit waar, 2 uure ongeluufelijke kluuterijen, sketchen en liedjes, deur den Ambassadeur van de Gentse Leute en zijn vrienden: Petra, An Fleur en Jan De Raedt. Orkest: 5 Men Band. Gelieve nie 't hoesten aub.","schedule":{"stop":"22:30","limit":"100","start":"20:00"}},{"location":{"longitude":"3.702715","latitude":"51.0662256","description":"Museum Dr. Guislain, Jozef Guislainstraat 43, Gent"},"type":"outdoor","title":"Geschiedenis van de psychiatrie","description":"Omgaan met waanzin doorheen de tijden: een mengeling van magie, religie, dwang en zorg, controle en wetenschap. Waar geen rede mee te rijmen valt, wil men bestraffen, zalven, verzorgen, genezen. Een fascinerende geschiedenis.","schedule":{"stop":"17:00","limit":"100","start":"13:00"}},{"location":{"longitude":"3.72076","latitude":"51.05471","description":"Aanlegsteiger Gent Watertoerist, Graslei , Gent"},"type":"outdoor","title":"Rondvaarten in de Gentse binnenstad","description":"Rondvaarten in de Gentse binnenstad - 40 minuten. Tijdens de rondvaart ontvangen de eerste 250 klanten een gratis Vedett.  Vertrek & aankomst : Graslei-Gent Watertoerist   Prijs : € 6,50 Volw / € 5,50 Gentenaar / € 3,50 kinderen (-12 jaar)","schedule":{"stop":"19:00","limit":"50","start":"11:00"}},{"location":{"longitude":"3.7198089","latitude":"51.0593912","description":"Augustijnenklooster Sint-Stefanus, Academiestraat 1, Gent"},"type":"indoor","title":"De Ark van Noach - Eco-kunst van William Sweetlove","description":"William Sweetlove is een autoriteit op gebied van kunst uit gerecycleerde materialen. Via zijn kunstwerken, die niet wars zijn van een vleugje humor en ironie, pleit hij voor een meer verantwoord-ecologische aanpak van de wereld.","schedule":{"stop":"17:00","limit":"100","start":"10:00"}},{"location":{"longitude":"3.724532","latitude":"51.055996","description":"François Laurent Instituut, Onderstraat 10, Gent"},"type":"indoor","title":"ALLADIN en de WONDERLAMP, poppentheater met Pierke van Gent","description":"Poppentheater voor families met kinderen. Dit jaar wordt het Oosterse Sprookje 'Alladin en de Wonderlamp' opgevoerd, waar ook Pierke een belangrijke rol in speelt.  Het verhaal is gekend: Alladin een arme jongen wordt een Prins uit 1001 nachten.","schedule":{"stop":"16:15","limit":"1000","start":"14:30"}},{"location":{"longitude":"3.7198035","latitude":"51.052799","description":"Het Pand, Onderbergen 1, Gent"},"type":"outdoor","title":"Camiel van Breedam, een modern kunstenaar op bezoek in de Etnografische Verzamelingen","description":"De kunstenaar Camiel van Breedam laat zich inspireren door etnografische objecten. Kom een poëtisch deeltje van zijn oeuvre ontdekken en deel zijn verwondering. Wilt u meer weten over deze intrigerende dialoog tussen voorwerpen, vraag het gerust!","schedule":{"stop":"17:00","limit":"50","start":"11:00"}},{"location":{"longitude":"3.6646316","latitude":"51.0501017","description":"Drongenplein 1, Drongen"},"type":"outdoor","title":"Snuisteren in de Oude Kalevallei: Fiets- of wandelzoektocht voor groot en klein.","description":"Slechts een paar kilometer van Gent centrum verwijderd, werd een verborgen parel toegankelijk gemaakt voor het publiek, de Oude Kalevallei. Tijdens de Gentse feesten kunnen klein en groot dit prachtige landschap op een speelse manier gaan ontdekken!","schedule":{"stop":"00:00","limit":"1000","start":"00:00"}},{"location":{"longitude":"3.7264994","latitude":"51.0428007","description":"Kunsthal Sint-Pietersabdij, Sint-Pietersplein 9, Gent"},"type":"outdoor","title":"Movieguide Alison","description":"Alison is een virtueel avontuur doorheen de geschiedenis van de Gentse Sint-Pietersabdij. Dit bezoek is bijzonder geschikt voor gezinnen met kinderen. Mysterieus, raadselachtig, verrassend. Een onalledaags cultuurhistorisch avontuur.","schedule":{"stop":"18:00","limit":"50","start":"10:00"}},{"location":{"longitude":"3.7165927","latitude":"51.0432035","description":"A Capella, Godshuizenlaan 33, Gent"},"type":"indoor","title":"La Chèvre Folle","description":"Een a capella-Frans chansonprogramma met verrassingsgasten. Deuren open vanaf: 19.45u","schedule":{"stop":"21:30","limit":"50","start":"20:00"}},{"location":{"longitude":"3.7227266","latitude":"51.0576395","description":"Infostand Vizit, Corduwaniersstraat 4, Gent"},"type":"outdoor","title":"Beeldige Borsten","description":"Met de borst vooruit wandelen we langs talloze beelden en afbeeldingen van vrouwen. We zoeken naar schoonheidsidealen vroeger en nu, naar leuke verhalen over opsmuk en geven jullie graag historisch verantwoorde schoonheidstips mee.","schedule":{"stop":"15:30","limit":"50","start":"14:00"}},{"location":{"longitude":"3.7226146","latitude":"51.0569531","description":"Aanmeerplaats :, Kraanlei , Gent"},"type":"indoor","title":"Bezoek aan De Gentse Barge","description":"De Gentse barge kan vrij bezocht worden vanaf 15u00 tot middernacht.  Bovendek: bar + aperitiefconcerten in de vooravond  Benedendek: tafelen met Foodsie vanaf 18u00 tot 23u00, reservatie aan te raden.'s Middags enkel voor groepen en op reservatie.","schedule":{"stop":"23:00","limit":"100","start":"15:00"}},{"location":{"longitude":"3.7202583","latitude":"51.0556456","description":"Design Museum Gent, Jan Breydelstraat 5, Gent"},"type":"outdoor","title":"Tentoonstelling \"Esprit Porcelaine\"","description":"Het kunstcollectief \"Esprit Porcelaine\" blaast \"Les arts de la table\", door hun samenwerking met de porseleinfabrieken in Limoges, nieuw leven in. De ontwerpen illustreren de technische vaardigheden die nodig zijn om tot hoogstaande kwaliteit te komen.","schedule":{"stop":"18:00","limit":"1000","start":"10:00"}},{"location":{"longitude":"3.7289473","latitude":"51.0518832","description":"zaal De Schryver (Sint Bavo, op wandelafstand van de Groene zaal), Reep 4, Gent"},"type":"indoor","title":"Het Dorp","description":"Vrolijke, intieme en ontroerende show met Nederlandse cabaretliedjes: Op een Mooie Pinksterdag, Het Dorp, Twee Motten, Kleine Johanna. De regisseur van \"Pauline & Paulette\" is eindelijk zwanger! Inclusief hommage aan Ann Petersen.","schedule":{"stop":"17:20","limit":"100","start":"15:00"}},{"location":{"longitude":"3.7201238","latitude":"51.054856","description":"Korenlei /, Gent"},"type":"outdoor","title":"Gent op z'n kookpunt (zoektocht zonder gids)","description":"Wat zat er vroeger in de kookpot? Waarom gebruiken we eigenlijk bestek? Hoe ontstond Gentse waterzooi? Boekje te koop: Kunstglasramen Mestdagh, Drabstraat 2.","schedule":{"stop":"00:00","limit":"50","start":"00:00"}},{"location":{"longitude":"3.7294696","latitude":"51.0578349","description":"Baudelopark, Bibliotheekstraat 7, Gent"},