[{"location":{"longitude":"3.7270706","latitude":"51.0564691","description":"Sint-Jacobskerk, Bij Sint-Jacobs , Gent"},"type":"outdoor","title":"Tentoonstelling Compostela","description":"De figuur van Sint Jacob en de bedevaarten naar Compostela in het volksgeloof","schedule":{"stop":"17:30","limit":"1000","start":"14:30"}},{"location":{"longitude":"3.7178529","latitude":"51.0545335","description":"Brasserie Het Volk, Poel 7, Gent"},"type":"outdoor","title":"Buffetformule of BBQ","description":"Soep, saladebar, 10 verschillende Hoofdschotels, diverse desserten. Reservatie bevestigd bij betaling en afhaling kaarten. Zitplaatsen verzekerd !","schedule":{"stop":"22:00","limit":"50","start":"17:30"}},{"location":{"longitude":"3.7183287","latitude":"51.0583441","description":"Tinnenpot, Tinnenpotstraat 21, Gent"},"type":"indoor","title":"Leute!","description":"Theaterfenomeen Jozef (Sef) Vanneste in een menselikke vwoorstellinge uut het leven gegrepen, met ne lach en ne troan. Wok toegankelijk en begrijpelijk voe niet-West-Vlamingen wei!","schedule":{"stop":"16:00","limit":"100","start":"15:00"}},{"location":{"longitude":"3.7270706","latitude":"51.0564691","description":"Sint-Jacobskerk, Bij Sint-Jacobs , Gent"},"type":"outdoor","title":"Tentoonstelling Leo De Budt","description":"Het onbekend religieus oeuvre van striptekenaar Leo De Budt, vader van \"Thomas Pips\"","schedule":{"stop":"17:30","limit":"1000","start":"14:30"}},{"location":{"longitude":"3.6297347","latitude":"51.0667128","description":"Schoolhoeve de Campagne, Gijzelstraat 14, Drongen"},"type":"outdoor","title":"Dieren voederen","description":"De kinderen gaan samen met de boer de aanwezige dieren voederen","schedule":{"stop":"18:00","limit":"1000","start":"17:00"}},{"location":{"longitude":"3.7226146","latitude":"51.0569531","description":"Aanmeerplaats :, Kraanlei , Gent"},"type":"indoor","title":"Bezoek aan De Gentse Barge","description":"De Gentse barge kan vrij bezocht worden vanaf 15u00 tot middernacht.  Bovendek: bar + aperitiefconcerten in de vooravond  Benedendek: tafelen met Foodsie vanaf 18u00 tot 23u00, reservatie aan te raden.'s Middags enkel voor groepen en op reservatie.","schedule":{"stop":"23:00","limit":"100","start":"15:00"}},{"location":{"longitude":"3.7189887","latitude":"51.0503951","description":"Auditorium 61, Onderbergen 61, Gent"},"type":"outdoor","title":"O Broeder! O Zuster!","description":"Een dolle komedie van Romain Deconinck","schedule":{"stop":"22:30","limit":"1000","start":"19:30"}},{"location":{"longitude":"3.7251237","latitude":"51.0559253","description":"Hof Van Ryhove, Onderstraat 20, Gent"},"type":"indoor","title":"De nooit gemaakte film","description":"Paulus volgens Pier Paolo Pasolini. Stichter van een Kerk of van een Partij?","schedule":{"stop":"18:30","limit":"50","start":"17:30"}},{"location":{"longitude":"3.702715","latitude":"51.0662256","description":"Museum Dr. Guislain, Jozef Guislainstraat 43, Gent"},"type":"outdoor","title":"In de marge. Belgische documentaire fotografie","description":"'In de marge' is een topselectie van 22 Belgische documentaire fotografen die zich op de een of andere manier inschrijven in deze geschiedenis en de 'andere kant' van het bestaan aan het licht brengen.","schedule":{"stop":"17:00","limit":"100","start":"09:00"}},{"location":{"longitude":"3.7466023","latitude":"51.0565888","description":"Begijnhofkerk Sint-Elisabeth, Groot Begijnhof 67, Sint-Amandsberg"},"type":"outdoor","title":"Diafaan V. Hedendaagse glaskunst in het Sint-Elisabethbegijnhof te Sint-Amandsberg","description":"Rondleiding in de tentoonstelling 'Diafaan V' waarbij op verschillende locaties in het begijnhof van Sint-Amandsberg, die voor de gelegenheid opengesteld zijn, glaskunstenaars hun werk tentoon stellen.","schedule":{"stop":"17:00","limit":"50","start":"15:00"}},{"location":{"longitude":"3.7264994","latitude":"51.0428007","description":"Kunsthal Sint-Pietersabdij, Sint-Pietersplein 9, Gent"},"type":"outdoor","title":"Fotografietentoonstelling Ground van Bruno Stevens","description":"Fotojournalist Bruno Stevens brengt in een 100-tal foto’s het resultaat van de ontmoetingen en gebeurtenissen van de voorbije 10  jaar in het Midden-Oosten. Deze foto’s verschenen in bvb. The Sunday Times, Newsweek, Paris-Match, etc.","schedule":{"stop":"18:00","limit":"50","start":"10:00"}},{"location":{"longitude":"3.6295947","latitude":"51.0671875","description":"Landgoed De Campagne, Gijzelstraat 12, Drongen"},"type":"outdoor","title":"Kinderdans","description":"Samen de wereld ronddansen zowel op moderne- als op wereldmuziek. Voel je de danskriebels al?","schedule":{"stop":"17:30","limit":"50","start":"16:30"}},{"location":{"longitude":"3.7271611","latitude":"51.0860819","description":"Cultureel Centrum Meulestede, Meulesteedsesteenweg 515, Gent"},"type":"indoor","title":"'t Weeuwken van de Muide","description":"Na acht uitverkochte voorstellingen in het Cultureel Centrum Meulestede, wordt deze bekende Gentse straatoperette hernomen op dezelfde locatie. Theater en zang brengen het publiek in vervoering te midden van een aangrijpend decor.","schedule":{"stop":"21:40","limit":"1000","start":"19:00"}},{"location":{"longitude":"3.7169339","latitude":"51.0522058","description":"Monasterium PoortAckere, Oude Houtlei 56, Gent"},"type":"indoor","title":"De Professor","description":"Mario Fernandez brengt een grappige en leerrijke goochelvoorstelling met een \"échte professor\". Hij doet proeven en toont zijn laatste uitvindingen. Een fascinerende cocktail van proefjes en interessante trucs!  Vanaf 5 jaar.","schedule":{"stop":"15:45","limit":"1000","start":"15:00"}},{"location":{"longitude":"3.7282741","latitude":"51.0560619","description":"Charlatan, Vlasmarkt 6, Gent"},"type":"outdoor","title":"Beatniks","description":"Barbaar: Niks van Beats met Dj's Jenz von Trapp, Katia Rock Ahoy (Stubru / Humo) & Koentje","schedule":{"stop":"05:55","limit":"1000","start":"00:00"}},{"location":{"longitude":"3.72","latitude":"51.05665","description":"Gravensteen, Sint-Veerleplein , Gent"},"type":"indoor","title":"Het Zwaard van Koning Arthur - poppentheater met Pierke","description":"Pierke gaat terug in de tijd en beleeft een spannend avontuur bij koning Arthur en tovenaar Merlijn! Alle klassieke Pedrolino-ingrediënten zijn aanwezig: een boeiend verhaal, humor, prachtige poppen en sfeervolle decors!","schedule":{"stop":"16:30","limit":"1000","start":"15:00"}},{"location":{"longitude":"3.7279839","latitude":"51.0580378","description":"secundair kunstintituut - speelplaats - ingang via Baudelohof, Ottogracht 4, Gent"},"type":"outdoor","title":"Elga - Het Panopticum","description":"Elga – Het Panopticum dompelt jou onder in de historiek van Gent waar revolutionaire figuren het voortouw namen. Dit levend museum vind je op de speelplaats van het SKI palend aan het Baudelohof. Een productie in samenwerking met het Vermeylenfonds.","schedule":{"stop":"16:40","limit":"50","start":"16:00"}},{"location":{"longitude":"3.6297347","latitude":"51.0667128","description":"Schoolhoeve de Campagne, Gijzelstraat 14, Drongen"},"type":"outdoor","title":"Broodje bakken","description":"De kinderen gaan zelfs hun deeg maken, kneden en versieren. Als het broodje gabakken is nemen ze het mee","schedule":{"stop":"16:30","limit":"1000","start":"15:30"}},{"location":{"longitude":"3.72392","latitude":"51.05039","description":"Kouter, Kouter , Gent"},"type":"outdoor","title":"11th Dream Day (V.S.)","description":"Club Handelsbeurs","schedule":{"stop":"23:50","limit":"10000","start":"22:50"}},{"location":{"longitude":"3.72","latitude":"51.05665","description":"Museum voor Schone Kunsten, Citadelpark , Gent"},"type":"outdoor","title":"ZOEKTOCHT VLIEG! voor kinderen van 6 tot 12 jaar","description":"Zoek aan de hand van vijf tips de schat van Vlieg! in het Museum voor Schone Kunsten","schedule":{"stop":"18:00","limit":"50","start":"10:00"}},{"location":{"longitude":"3.7223906","latitude":"51.058202","description":"Caermersklooster, Vrouwebroersstraat 6, Gent"},"type":"outdoor","title":"Compelling Faces","description":"een fototentoonstelling van Caroline ALIDA, Lieven NOLLET en Yan XINFA.  Los van elkaar heeft ieder van hen gedurende verschillende jaren portretten gemaakt van individuen die deel uitmaken van gemarginaliseerde groepen uit de samenleving.","schedule":{"stop":"17:00","limit":"50","start":"10:00"}},{"location":{"longitude":"3.7253208","latitude":"51.0545313","description":"Stadhuis, Botermarkt 1, Gent"},"type":"outdoor","title":"'Rechtspraak en gerechtigheid.' Themarondleiding in het Stadhuis.","description":"In het stadhuis werd vroeger recht gesproken. Opvallend is het labyrint in de Pacificatiezaal. Die banmijl kon een aantal keren worden afgelegd als straf voor sommige overtreders van de wet.","schedule":{"stop":"17:15","limit":"50","start":"16:30"}},{"location":{"longitude":"3.7198035","latitude":"51.052799","description":"Het Pand, Onderbergen 1, Gent"},"type":"outdoor","title":"Workshops voor kinderen in de Etnografische Verzamelingen","description":"Kruip in de huid van een heuse ontdekkingsreiziger. Verken de wereld aan de hand van voorwerpen en verhalen.   Speel spelletjes van verre volkeren. Zo kom je te weten hoe kinderen zich daar amuseren en groot worden. Ouders welkom. Schrijf tijdig in!","schedule":{"stop":"16:00","limit":"50","start":"15:00"}},{"location":{"longitude":"3.7187391","latitude":"51.0535642","description":"Sint-Michielskerk, Sint-Michielsplein 1, Gent"},"type":"outdoor","title":"Johan Famaey (B - Lokeren)","description":"Orgel","schedule":{"stop":"16:00","limit":"1000","start":"15:00"}},{"location":{"longitude":"3.7142364","latitude":"51.0546514","description":"Bar Oh, Hoogstraat 88, Gent"},"type":"indoor","title":"Ontbijt met Stadswandeling","description":"Elke dag een historische wandeling. info: www.dekorf.be of info@gidsenbond-gent.be","schedule":{"stop":"12:30","limit":"50","start":"08:00"}},{"location":{"longitude":"3.7278414","latitude":"51.0554501","description":"KANTL, Koningstraat 18, Gent"},"type":"indoor","title":"Mijn pappie is enkel een foto.   (Miserie, onnoemelijk veel miserie verpakt in meezingers van een onweerstaanbare lichtheid!) advies: Wouter Deprez","description":"Denkt u bij De Zangeres Zonder Naam aan suiker, plastic rozen en pathos? Zie dan hoe Frank Cools in dit heerlijk repertoire duikt: zonder ironie en recht vanuit dat grote hart van hem. Het plezierigste verdriet dat u ooit proefde! Olé!!","schedule":{"stop":"22:30","limit":"100","start":"21:30"}},{"location":{"longitude":"3.7226146","latitude":"51.0569531","description":"Aanmeerplaats :, Kraanlei , Gent"},"type":"indoor","title":"Theo Dewitte (Attic)","description":"Singer-Songwriter - Solo","schedule":{"stop":"19:00","limit":"100","start":"18:00"}},{"location":{"longitude":"3.7198089","latitude":"51.0593912","description":"Augustijnenklooster Sint-Stefanus, Academiestraat 1, Gent"},"type":"indoor","title":"De Ark van Noach - Eco-kunst van William Sweetlove","description":"William Sweetlove is een autoriteit op gebied van kunst uit gerecycleerde materialen. Via zijn kunstwerken, die niet wars zijn van een vleugje humor en ironie, pleit hij voor een meer verantwoord-ecologische aanpak van de wereld.","schedule":{"stop":"17:00","limit":"100","start":"10:00"}},{"location":{"longitude":"3.7254561","latitude":"51.0536709","description":"Belfort, Sint-Baafsplein , Gent"},"type":"outdoor","title":"Belfort - Vertelfort","description":"Tussen de stoffige stenen en de balorige bellen van het Belfort liggen al eeuwen verhalen op jou te wachten. Maar niet meer voor lang. Verteller Veerle Ernalsteen neemt je mee op vertelavontuur.","schedule":{"stop":"16:30","limit":"50","start":"15:00"}},{"location":{"longitude":"3.7193184","latitude":"51.0298072","description":"Sarteelhuis - Miljoenenkwartier (bij Sint-Pietersstation), Vaderlandstraat 166, Gent"},"type":"indoor","title":"Sarteelhuis","description":"Gratis wandelen tussen Sarteels beelden en tekeningen alsook langs kunstwerken van zijn overleden kinderen: kunstschilder Leon Sarteel Jr. en sierkunstenares Clara, in Sarteels oorspronkelijk atelier en expositieruimte. Met uitleg van zijn schoonzoon.","schedule":{"stop":"18:00","limit":"1000","start":"10:00"}},{"location":{"longitude":"3.72","latitude":"51.05665","description":"10 Days Off - Vooruit, Sint-Pietersnieuwstraat , Gent"},"type":"outdoor","title":"Matias Aguayo (CHIL)","description":"Chileen die achter de draaitafels niet alleen met cd's, maar ook met een fluitje, een microfoon en een electronisch drumstel in de weer is. Vertaalt de broeierige, wat vuile sfeer van Chileense straatparties naar de dansvloer. Ay ay ay!","schedule":{"stop":"05:55","limit":"5000","start":"23:00"}},{"location":{"longitude":"3.7223906","latitude":"51.058202","description":"Caermersklooster, Vrouwebroersstraat 6, Gent"},"type":"outdoor","title":"Provinciale Prijs voor Vormgeving 2010","description":"Tentoonstelling met werk van Erik Sijmons, Leen Depooter en het duo Luc d’Hanis & Sofie Lachaert, laureaat en genomineerden van de zevende editie van Provinciale Prijs voor Vormgeving","schedule":{"stop":"17:00","limit":"50","start":"10:00"}},{"location":{"longitude":"3.6295947","latitude":"51.0671875","description":"Landgoed De Campagne, Gijzelstraat 12, Drongen"},"type":"outdoor","title":"Spel en dans","description":"Met leeftijdsgenoten kennismaken via enkele spelletjes en dansjes op leuke muziek.","schedule":{"stop":"14:30","limit":"50","start":"13:30"}},{"location":{"longitude":"3.7264994","latitude":"51.0428007","description":"Ingang St.-Pieterskerk, Sint-Pietersplein 9, Gent"},"type":"outdoor","title":"Bierwandeling","description":"Een verkwikkende wandeling die de zintuigen prikkelt: verhalen over al dan niet heilzaam bierdrinken… én gelegenheid de opgedane kennis proefondervindelijk te toetsen op diverse locaties - o.a. de stadsbrouwerij Gruut. (Prijs = exclusief laatste drankje)","schedule":{"stop":"19:30","limit":"50","start":"17:00"}},{"location":{"longitude":"3.7287123","latitude":"51.0599955","description":"MIAT, Minnemeers 9, Gent"},"type":"outdoor","title":"Expo Matchbox on tour","description":"Matchbox is een tentoonstellingsproject op wielen, in de tuin van het MIAT. De Nederlandse Conny Kuilboer en de Russische Nina Stoupina zullen samenwerken. Met feestelijke opening op zondagmiddag 17 juli.","schedule":{"stop":"17:00","limit":"50","start":"14:00"}},{"location":{"longitude":"3.7272136","latitude":"51.059811","description":"park Willem de Beersteeg, Willem de Beersteeg , Gent"},"type":"outdoor","title":"BataMatiQ","description":"These are Modern Times. Ook cirQ blijft bij de tijd. Deze zomer draait de vertierindustrie op volle toeren dankzij BataMatiQ. Automatisch amusement voor de meerwaardezoeker.","schedule":{"stop":"00:00","limit":"1000","start":"15:00"}},{"location":{"longitude":"3.72","latitude":"51.05665","description":"Zuidpark, Woodrow Wilsonplein , Gent"},"type":"outdoor","title":"De Geheimen van Gent","description":"Los jij solo, in duo of met je team van detectives de moord op Brocante Julos op, die alles te maken heeft met ‘de geheimen van Gent’? De winnaar van dit stadsspel-moordspel zal beloond worden met het teruggevonden paneel de Rechtvaardige Rechters!","schedule":{"stop":"19:00","limit":"50","start":"14:00"}},{"location":{"longitude":"3.7223906","latitude":"51.058202","description":"Caermersklooster, Vrouwebroersstraat 6, Gent"},"type":"outdoor","title":"Op zoek naar het HOL in het PATERSHOL","description":"Een reportage door de deken van de Kon. Dekenij Patershol. Een boeiende vertelling en beeldreportage over de ontstaansgeschiedenis van het Karmelietenklooster. Met korte rondleiding in enkele panden.","schedule":{"stop":"12:15","limit":"50","start":"10:30"}},{"location":{"longitude":"3.7287123","latitude":"51.0599955","description":"MIAT, Minnemeers 9, Gent"},"type":"outdoor","title":"Expo 'Ons industrieel verleden'","description":"Duik 250 jaar terug in de tijd. Vergeet alle technologische toepassingen, zoals gsm, computer en ipod. Je belandt in de 18e eeuw en komt vervolgens in de periode van de 1e industriële revolutie met de opkomst van de machine.","schedule":{"stop":"18:00","limit":"100","start":"10:00"}},{"location":{"longitude":"3.7287123","latitude":"51.0599955","description":"Minnemeers (NT2Gent), Minnemeers 9, Gent"},"type":"outdoor","title":"Ka-Bal: danstheater met live muziek","description":"Ka-Bal combineert live muziek met dans in telkens drie korte voorstellingen per avond, gebracht door een schare Belgische en internationale artiesten voor wie geen uitdaging te veel is.","schedule":{"stop":"21:00","limit":"50000","start":"20:00"}},{"location":{"longitude":"3.7384238","latitude":"51.0537966","description":"Sint-Baafssite, Gandastraat , Gent"},"type":"outdoor","title":"Clownsbende (workshop) - Tom Roos (BE) - betalend","description":"Tom Roos geeft regelmatig workshops zowel in het binnenland als buitenland met als specialiteit: clown. Hij lag mee aan de basis van het project ‘Calling up Soweto’ van Frederik Sioen, in samenwerking met One Day for another World en Oxfam.","schedule":{"stop":"17:00","limit":"50","start":"10:00"}},{"location":{"longitude":"3.701899","latitude":"51.0595485","description":"Centrum Reinaert, Reinaertstraat 28, Gent"},"type":"indoor","title":"Travestieshow Les Folles de Gand","description":"Travestieshow onder leiding van Miss Michelle. Glitter, glamour en humor. Sketches met Cabaret oester. Stemmenimitator Steve Ryckier. Airco in de zaal en hapjes te verkrijgen. Géén show op 17 juli","schedule":{"stop":"23:15","limit":"1000","start":"20:30"}},{"location":{"longitude":"3.7238516","latitude":"51.053485","description":"Zodiac, Heilige-Geeststraat 3, Gent"},"type":"indoor","title":"Hypnotized","description":"Dj claude: Hypnozz goes Zodiac. Women on top!","schedule":{"stop":"05:00","limit":"5000","start":"23:00"}},{"location":{"longitude":"3.7289473","latitude":"51.0518832","description":"zaal De Schryver (Sint Bavo, op wandelafstand van de Groene zaal), Reep 4, Gent"},"type":"indoor","title":"Het Dorp","description":"Vrolijke, intieme en ontroerende show met Nederlandse cabaretliedjes: Op een Mooie Pinksterdag, Het Dorp, Twee Motten, Kleine Johanna. De regisseur van \"Pauline & Paulette\" is eindelijk zwanger! Inclusief hommage aan Ann Petersen.","schedule":{"stop":"22:20","limit":"100","start":"20:00"}},{"location":{"longitude":"3.7254561","latitude":"51.0536709","description":"Belfort, Sint-Baafsplein , Gent"},"type":"outdoor","title":"Kleurwedstrijd","description":"Doorlopend kleurwedstrijd voor de kinderen; tekeningen, papier en wasco's liggen ter beschikking. De winnaars krijgen persoonlijk een brief van de slotenmaker...","schedule":{"stop":"18:00","limit":"50","start":"10:00"}},{"location":{"longitude":"3.72076","latitude":"51.05471","description":"Aanlegsteiger Gent Watertoerist, Graslei , Gent"},"type":"outdoor","title":"Rondvaarten in de Gentse binnenstad","description":"Rondvaarten in de Gentse binnenstad - 40 minuten. Tijdens de rondvaart ontvangen de eerste 250 klanten een gratis Vedett.  Vertrek & aankomst : Graslei-Gent Watertoerist   Prijs : € 6,50 Volw / € 5,50 Gentenaar / € 3,50 kinderen (-12 jaar)","schedule":{"stop":"19:00","limit":"50","start":"11:00"}},{"location":{"longitude":"3.7372265","latitude":"51.0572684","description":"WiSPER vzw, Warandestraat 13, Gent"},"type":"indoor","title":"Cursus locatietheater op de Gentse Feesten","description":"Stel je een levend beeldverhaal voor, midden in de bruisende sfeer van de feesten… géén woorden, wel beweging, handeling, kostuum, gemurmel en gezang. Op vijf namiddagen maken we een presentatie en toetsen die aan het publiek.","schedule":{"stop":"18:00","limit":"50","start":"14:00"}},{"location":{"longitude":"3.7287123","latitude":"51.0599955","description":"MIAT, Minnemeers 9, Gent"},"type":"outdoor","title":"Open viltatelier","description":"Vilten is hip! Deze oeroude techniek, waarbij je van wol vilt maakt, vind je vandaag in juwelen, tassen en zelfs tapijten. Koop een zakje wol en ontdek de basisknepen van het vilten. Kom en ga, zoals jij het wilt.","schedule":{"stop":"18:00","limit":"50","start":"14:00"}},{"location":{"longitude":"3.72","latitude":"51.05665","description":"Rigakaai - tegenover WEBA, Rigakaai 0375, Gent"},"type":"indoor","title":"Havenrondvaarten met het havenjacht \"Jacob van Artevelde\"","description":"Ga tijdens de Gentse Feesten mee op verkenning in de haven. We starten aan de Rigakaai en varen helemaal tot aan ArcelorMittal.  U maakt kennis met alle dokken en met alle belangrijke spelers zoals oa Volvo, Stora Enso, Bio Base Europe, enz","schedule":{"stop":"18:00","limit":"100","start":"16:30"}},{"location":{"longitude":"3.7226146","latitude":"51.0569531","description":"Aanlegsteiger Boat in Gent, bij Gravensteen (50m), Kraanlei , Gent"},"type":"outdoor","title":"De Piratenboot + gratis ijsje. Duur 40 min.","description":"Maat Piraat springt aan boord want boeven zitten hem op de hielen. We gaan per boot op zoek naar een geheime schat en hij vertelt onderweg geweldige verhalen over zijn wedervaren om zijn droom te vervullen...","schedule":{"stop":"17:40","limit":"1000","start":"17:00"}},{"location":{"longitude":"3.7202583","latitude":"51.0556456","description":"Design Museum Gent, Jan Breydelstraat 5, Gent"},"type":"outdoor","title":"Design van 1880 tot vandaag","description":"De collecties 20ste-eeuwse en hedendaagse vormgeving in het Design museum Gent zijn meer dan een ommetje waard. U kan kennismaken met ontwerpen van Van de Velde, Rietveld, Hoffmann, Mendini, Van Severen, Arad, ....","schedule":{"stop":"18:00","limit":"1000","start":"10:00"}},{"location":{"longitude":"3.7294696","latitude":"51.0578349","description":"Baudelopark, Bibliotheekstraat 7, Gent"},"type":"outdoor","title":"Picture 307 (jeugdcircus, BE)","description":"Picture 307: een invulling van je eigen gedachte. Beelden die iets laten zien. Gewoon zoals het is, zoals we zijn, niet alsof. Elke keer opnieuw, maar elke keer anders. Mooie voorstelling van de jongeren van circusatelier Circ-o-Fun (Neerpelt).","schedule":{"stop":"16:25","limit":"1000","start":"16:00"}},{"location":{"longitude":"3.7123823","latitude":"51.0462502","description":"VIP School, Martelaarslaan 13, Gent"},"type":"outdoor","title":"Prietproat, blabla en andere ziever.","description":"Gentse feestenrevue met grappen en sketches in 't schuun Gents door de Kloaverkes met als onderwerp TAAL in al zijn vormen. De show wordt afgewisseld met liedjes van BETSY en komische goochelacts van het duo ROBINI en BALDARNY. Muziek: Marco's orkest.","schedule":{"stop":"22:45","limit":"50","start":"19:30"}},{"location":{"longitude":"3.7193184","latitude":"51.0298072","description":"Sarteelhuis - Miljoenenkwartier (bij Sint-Pietersstation), Vaderlandstraat 166, Gent"},"type":"indoor","title":"Sarteelhuis","description":"Gratis wandelen tussen Sarteels beelden en tekeningen alsook langs kunstwerken van zijn overleden kinderen: kunstschilder Leon Sarteel Jr. en sierkunstenares Clara, in Sarteels oorspronkelijk atelier en expositieruimte. Met uitleg van zijn schoonzoon.","schedule":{"stop":"18:00","limit":"1000","start":"14:00"}},{"location":{"longitude":"3.7287123","latitude":"51.0599955","description":"MIAT, Minnemeers 9, Gent"},"type":"outdoor","title":"Middeleeuws ontbijt en Ontbijt bij Lieven Bauwens","description":"Een arm en een rijk ontbijt, een ontbijt bij Lieven Bauwens. En nieuw dit jaar: een kinderontbijt! Steeds een goede start voor een dag Gentse Feesten. Geen reservatie mogelijk. Wie voor 11.30 uur aanwezig is, wordt zeker bediend. Prijs €5, €9 of €11.","schedule":{"stop":"11:30","limit":"1000","start":"08:30"}},{"location":{"longitude":"3.7198089","latitude":"51.0593912","description":"Augustijnenklooster Sint-Stefanus, Academiestraat 1, Gent"},"type":"indoor","title":"GELEGENHEIDSRESTAURANT Augustijnenklooster","description":"Dagelijks gelegenheidsrestaurant tussen 12.00u en 15.00u ten voordele van de Afrikaprojecten van de Paters Augustijnen","schedule":{"stop":"15:00","limit":"100","start":"12:00"}},{"location":{"longitude":"3.6297347","latitude":"51.0667128","description":"Schoolhoeve de Campagne, Gijzelstraat 14, Drongen"},"type":"outdoor","title":"Diertjes knuffelen","description":"De kinderen kunnen een aantal kleinere diertjes (konijnen, cavia's) knuffelen","schedule":{"stop":"17:00","limit":"1000","start":"14:00"}},{"location":{"longitude":"3.7271842","latitude":"51.0562813","description":"Café Trefpunt, Bij Sint-Jacobs 18, Gent"},"type":"outdoor","title":"Smeltkroes van culturen","description":"Deze wandeling geeft een beeld van het multiculturele oude Gent. Gent is altijd een poort op Europa en de wereld geweest, daarvan zijn vele getuigen terug te vinden. Deze wandeling eindigt in de Orthodoxe kerk die geheel versierd is met fresco’s.","schedule":{"stop":"16:30","limit":"50","start":"14:00"}},{"location":{"longitude":"3.7282741","latitude":"51.0560619","description":"Charlatan, Vlasmarkt 6, Gent"},"type":"outdoor","title":"Black Frank & Davidov","description":"Zaal: The best off Urban Music","schedule":{"stop":"05:55","limit":"1000","start":"01:00"}},{"location":{"longitude":"3.7244453","latitude":"51.0487669","description":"Sint Barbaracollege, Savaanstraat 33, Gent"},"type":"indoor","title":"Taminco Internationaal Schaaktornooi van Gent","description":"Heeft plaats van 16 t/m 20 juli 2011, 9 ronden Zwitsers systeem, partijen 2 uur KO, prijzengeld 6875€ bij 300 deelnemers, eerste prijs 1800€ gegarandeerd? Dit traditioneel open tornooi heeft plaats in de week van de Gentse Feesten.","schedule":{"stop":"23:00","limit":"50","start":"13:00"}},{"location":{"longitude":"3.7209076","latitude":"51.0534952","description":"Sint Michielsbrug, Predikherenlei 2, Gent"},"type":"outdoor","title":"Romantic Paddling","description":"Romantische rondvaart in de oude Gentse binnenstad met een Canadese kano, al dan niet voorzien van een bubbeltje.  Voor mensen met een sportieve ingesteldheid en zin voor avontuur en cultuur.","schedule":{"stop":"19:00","limit":"50","start":"10:00"}},{"location":{"longitude":"3.7198035","latitude":"51.052799","description":"Het Pand, Onderbergen 1, Gent"},"type":"outdoor","title":"Tangram en andere traditionele kinderspelletjes uit China in de Etnografische Verzamelingen","description":"TANGRAM is een Chinees legspel waarbij figuren kunnen worden gevormd uit geometrische stukken. Met zo’n puzzelstuk in de hand speuren en spelen tussen de museumstukken en in de omsloten kloostertuin.   Ouders zijn welkom!","schedule":{"stop":"15:30","limit":"50","start":"14:00"}},{"location":{"longitude":"3.7285385","latitude":"51.0557895","description":"Kinky Star, Vlasmarkt 9, Gent"},"type":"outdoor","title":"Rape Blossoms","description":"Postpunk / Noise","schedule":{"stop":"23:00","limit":"50","start":"22:00"}},{"location":{"longitude":"3.7160307","latitude":"51.0563182","description":"Galerij Nina Stoupina, Burgstraat 101, Gent"},"type":"indoor","title":"Straat 27","description":"Werken van Nina Stoupina in haar eigen galerij.","schedule":{"stop":"18:00","limit":"50","start":"14:00"}},{"location":{"longitude":"3.7287123","latitude":"51.0599955","description":"MIAT, Minnemeers 9, Gent"},"type":"outdoor","title":"Museumspel Het Blote Knieënspel","description":"Een zoektocht naar het leven van vroeger. Wat at een rijk kind? Hoe zag een bakkersoven er uit? Waar werkten de kinderen? Met een doeboekje ga je van speelkast naar speelkast. Van 6 tot 12 jaar.","schedule":{"stop":"18:00","limit":"50","start":"10:00"}},{"location":{"longitude":"3.7142364","latitude":"51.0546514","description":"Bar Oh, Hoogstraat 88, Gent"},"type":"indoor","title":"Ontbijt met akoestische muziekale omkadering met aperitief en tapas","description":"Elke dag een andere muziekant","schedule":{"stop":"12:30","limit":"50","start":"10:30"}},{"location":{"longitude":"3.7214225","latitude":"51.0515844","description":"Hotel d'Hane Steenhuyse, Veldstraat 55, Gent"},"type":"indoor","title":"Rondleidingen in Hotel d'Hane Steenhuyse","description":"Uitzonderlijk kan het Hotel d'Hane Steenhuyse - een 18de-eeuws stadspaleis - onder begeleiding van een gids worden bezocht.","schedule":{"stop":"18:00","limit":"100","start":"17:00"}},{"location":{"longitude":"3.7234722","latitude":"51.0574921","description":"Het Huis van Alijn, Kraanlei 65, Gent"},"type":"outdoor","title":"Chansons à la carte met Guido Belcanto en Derek","description":"Van Derek weten we al langer dat hij graag in het Frans zingt, maar dat ook Guido Belcanto een zwak heeft voor het Franse lied is een groter geheim! Samen met muzikanten Yves Meersschaert en Mario Vermandel brengen ze hun favoriete Franstalige chansons.","schedule":{"stop":"19:00","limit":"1000","start":"17:30"}},{"location":{"longitude":"3.7253208","latitude":"51.0545313","description":"Stadhuis, Botermarkt 1, Gent"},"type":"outdoor","title":"Stadhuis van Gent","description":"Geleid bezoek aan het Stadhuis met aandacht voor Rechtspraak en Gerechtigheid. In samenwerking met de Dienst Monumentenzorg en Architectuur. Inschrijven niet nodig.","schedule":{"stop":"15:25","limit":"50","start":"14:30"}},{"location":{"longitude":"3.7171145","latitude":"51.0555274","description":"School van Toen, Klein Raamhof 8, Gent"},"type":"outdoor","title":"Kantklossen","description":"Aan de hand van een werkmodel worden de technieken van het kantklossen getoond.","schedule":{"stop":"17:00","limit":"100","start":"14:00"}},{"location":{"longitude":"3.7251482","latitude":"51.0540835","description":"Stadhuis, hoek Hoogpoort/Botermarkt, Botermarkt , Gent"},"type":"outdoor","title":"Gentse Feesten, schone feesten : IVAGO-ochtendwandeling","description":"Deze activiteit is VOLZET  Tijdens deze wandeling maak je kennis met de dagelijkse werkzaamheden van IVAGO, want Gent elke dag proper krijgen is een hele klus. De wandeling start aan het stadhuis en eindigt met een middeleeuws ontbijt in het MIAT.","schedule":{"stop":"08:30","limit":"100","start":"06:45"}},{"location":{"longitude":"3.7201238","latitude":"51.054856","description":"Korenlei /, Gent"},"type":"outdoor","title":"Gent op z'n kookpunt (zoektocht zonder gids)","description":"Wat zat er vroeger in de kookpot? Waarom gebruiken we eigenlijk bestek? Hoe ontstond Gentse waterzooi? Boekje te koop: Kunstglasramen Mestdagh, Drabstraat 2.","schedule":{"stop":"00:00","limit":"50","start":"00:00"}},{"location":{"longitude":"3.72","latitude":"51.05665","description":"Domzaal - Kunstencentrum Vooruit, Sint-Pietersnieuwstraat 23, Gent"},"type":"outdoor","title":"Ongericht Enthousiasme","description":"Ongericht Enthousiasme is het nieuwe cabarettrio van -in geen bepaalde volgorde- Michel Verkinderen, Kevin Bellemans en Philippe Verkinderen. Zij brengen verfrissend, flitsend en absurd zapcabaret.","schedule":{"stop":"23:45","limit":"1000","start":"22:30"}},{"location":{"longitude":"3.7118345","latitude":"51.0595259","description":"Rabotkerk, Begijnhoflaan 31, Gent"},"type":"outdoor","title":"Op de koffie bij de protestanten in de Rabotkerk - PROTESTANTISME IN VLAANDEREN in woord en beeld met ds. Marc Loos","description":"Over Gent als een rebelse stad en de rol van het Protestantisme. Hoe en waarom is de Protestantse Kerk ontstaan? Wat leert die kerk en hoe staat zij tegenover de huidige kerkelijke en maatschappelijke vraagstukken? Waarin verschilt zij van de RKK?","schedule":{"stop":"12:00","limit":"50","start":"10:30"}},{"location":{"longitude":"3.72","latitude":"51.05665","description":"Rigakaai - tegenover WEBA, Rigakaai 0375, Gent"},"type":"indoor","title":"Havenrondvaarten met het havenjacht \"Jacob van Artevelde\"","description":"Ga tijdens de Gentse Feesten mee op verkenning in de haven. We starten aan de Rigakaai en varen helemaal tot aan ArcelorMittal.  U maakt kennis met alle dokken en met alle belangrijke spelers zoals oa Volvo, Stora Enso, Bio Base Europe, enz","schedule":{"stop":"11:30","limit":"100","start":"10:00"}},{"location":{"longitude":"3.72","latitude":"51.05665","description":"Botermarkt, afspraak aan de trappen voor het stadhuis, Botermarkt z/n, Gent"},"type":"outdoor","title":"Radio 2 animatie in en voor de mobiele studio (locatie : voor stadhuis, in het hart van de Gentse Feesten)","description":"loop eens langs , en ontmoet ons radio-team en hun Gentse Feesten gasten","schedule":{"stop":"22:00","limit":"50","start":"15:00"}},{"location":{"longitude":"3.7287123","latitude":"51.0599955","description":"MIAT, Minnemeers 9, Gent"},"type":"outdoor","title":"Expo 'WereldWijdWerken'","description":"Beleef de gevolgen van de industrialisatie. Felix, Aline en Monica komen uit een grote familie. Zij nemen je mee doorheen de expo en vertellen over de turbulente veranderingen in deze periode. Met filmfragmenten en luisterposten.","schedule":{"stop":"18:00","limit":"100","start":"10:00"}},{"location":{"longitude":"3.7183287","latitude":"51.0583441","description":"Tinnenpot, Tinnenpotstraat 21, Gent"},"type":"outdoor","title":"Cabaret Best","description":"Na Cabaret één, Cabaret-wee, Cabaret-te-rie, Cabaret Fier en Cabaret de Vijfde sluiten ze hun jarenlange samenwerking af met Cabaret Best. Elk van de acteurs brengt twee van hun favoriet nummers uit de voorbije jaren. En ze zingen ook!","schedule":{"stop":"21:10","limit":"1000","start":"19:30"}},{"location":{"longitude":"3.7271842","latitude":"51.0562813","description":"Café Trefpunt, Bij Sint-Jacobs 18, Gent"},"type":"outdoor","title":"Gent, rebelse stad!","description":"Gent heeft altijd een dwars en rebels karakter gehad; Dit uitte zich in vele opstanden en oproeren tegen externe en interne machthebbers. In deze wandeling tonen we u aan dat Gent inspiratie geweest is voor nieuwe vormen om het gezag te tarten.","schedule":{"stop":"16:00","limit":"50","start":"14:00"}},{"location":{"longitude":"3.72392","latitude":"51.05039","description":"Kouter, Kouter , Gent"},"type":"outdoor","title":"The Antler King","description":"Box Kouter","schedule":{"stop":"22:20","limit":"10000","start":"21:50"}},{"location":{"longitude":"3.7354626","latitude":"51.0520676","description":"Visart, Visserij 8, Gent"},"type":"outdoor","title":"Tentoonstelling Schilderwerk Michael Samuel Lucifer Vandorpe","description":"Expositie van abstracte landschapsschilderijen, olieverf op canvas. Een selectie schilderijen en nieuw werk van Michael Samuel Lucifer Vandorpe. In Visart, Contemporary VISions on ART. Elke feestendag opendeur van 15 uur tot 20 uur.","schedule":{"stop":"20:00","limit":"50","start":"15:00"}},{"location":{"longitude":"3.7214225","latitude":"51.0515844","description":"Hotel d'Hane Steenhuyse, Veldstraat 55, Gent"},"type":"indoor","title":"Aan tafel met graaf Pierre Emmanuel d'Hane de Leeuwergem","description":"Het publiek beleeft een dag uit het leven van de familie d'Hane de Leeuwergem en haar personeel in 1778.","schedule":{"stop":"21:30","limit":"50","start":"19:30"}},{"location":{"longitude":"3.7201238","latitude":"51.054856","description":"Aanlegsteiger De Bootjes van Gent-Rederij Dewaele, Korenlei , Gent"},"type":"outdoor","title":"Portus Ganda + Oude Dokken per boot met gratis ijsje.  Duur: 1u45","description":"Met gids van Korenlei, door de sluis, via Portus Ganda en Dampoort naar de Oude Dokken met zijn schitterend stadsvernieuwingsproject en terug. Voor echte kurieuzeneuzen! Tickets afhalen vanaf 1 uur vóór afvaart.","schedule":{"stop":"19:15","limit":"1000","start":"17:30"}},{"location":{"longitude":"3.7319393","latitude":"51.0480347","description":"CAPITOLE GENT, Graaf van Vlaanderenplein 5, Gent"},"type":"indoor","title":"Bert Kruismans","description":"De allerslimste mens ter wereld komt naar Capitole Gent. Op 19 juli brengt hij tijdens de Gentse Feesten zijn gloednieuwe show \"Geen gezeik, iedereen rijk!\".    Dinner seats: € 60","schedule":{"stop":"22:00","limit":"5000","start":"20:00"}},{"location":{"longitude":"3.72","latitude":"51.05665","description":"Zaal Torrepoort, Ravensteinstraat z/n, Gent"},"type":"indoor","title":"Klein Gelatine","description":"Walter Baele, wereldberoemd met typetjes als Prins Filip, Rosa en Van Leemhuyzen (uit Samson) staat 25 jaar op de planken. Zijn show is een niet te missen vijfsterren typetjesspektakel. Humor tegen de sterren op! (zie ook www.xlp.be)","schedule":{"stop":"21:20","limit":"1000","start":"20:00"}},{"location":{"longitude":"3.6646316","latitude":"51.0501017","description":"Drongenplein 1, Drongen"},"type":"outdoor","title":"Snuisteren in de Oude Kalevallei: Fiets- of wandelzoektocht voor groot en klein.","description":"Slechts een paar kilometer van Gent centrum verwijderd, werd een verborgen parel toegankelijk gemaakt voor het publiek, de Oude Kalevallei. Tijdens de Gentse feesten kunnen klein en groot dit prachtige landschap op een speelse manier gaan ontdekken!","schedule":{"stop":"00:00","limit":"1000","start":"00:00"}},{"location":{"longitude":"3.7202583","latitude":"51.0556456","description":"Design Museum Gent, Jan Breydelstraat 5, Gent"},"type":"outdoor","title":"Tentoonstelling \"Die Essenz der Dinge\"","description":"In deze tentoonstelling staan designobjecten die \"de kunst van het reduceren\"  illustreren centraal. Vormgeving herleiden tot het essentiële is van alle tijden, maar wat betekent dit in een periode van economische crisis?","schedule":{"stop":"18:00","limit":"1000","start":"10:00"}},{"location":{"longitude":"3.7227266","latitude":"51.0576395","description":"Infostand Vizit, Corduwaniersstraat 4, Gent"},"type":"outdoor","title":"Broodje Gent: Culinair Patershol","description":"Wil je eens iets anders dan saaie boterhammen uit je brooddoos? Laat je dan verleiden door Broodje Gent. Wij bezorgen je een originele middagpauze en nemen je twee uurtjes mee het Patershol in.","schedule":{"stop":"14:00","limit":"50","start":"12:00"}},{"location":{"longitude":"3.7226146","latitude":"51.0569531","description":"Aanlegsteiger Boat in Gent, bij Gravensteen (50m), Kraanlei , Gent"},"type":"outdoor","title":"Boottocht met Hanneke Tanneke Toverheks + gratis ijsje. Duur 40 min.","description":"Vaar mee met Hanneke Tanneke: een lelijke, vrolijke, superslordige heks die de Gentse wateren tijdens de Feesten onveilig maakt. Kleuters en kinderen tot 8 jaar helpen Hanneke om een heel speciale toverdrank te brouwen.","schedule":{"stop":"11:40","limit":"1000","start":"11:00"}},{"location":{"longitude":"3.7169339","latitude":"51.0522058","description":"Monasterium Poortackere, Oude Houtlei 56, Gent"},"type":"indoor","title":"amoRRoma duo","description":"amoR (liefde) en Roma (de symbolische macht)… tegengestelden.","schedule":{"stop":"13:00","limit":"1000","start":"12:00"}},{"location":{"longitude":"3.72","latitude":"51.05665","description":"Museum voor Schone Kunsten, Citadelpark , Gent"},"type":"outdoor","title":"AUDIOGIDSEN GRATIS - volwassenen en kinderen","description":"Audiogidsen GRATIS voor volwassenen en kinderen tijdens GF","schedule":{"stop":"18:00","limit":"50","start":"10:00"}},{"location":{"longitude":"3.7198035","latitude":"51.052799","description":"Het Pand, Onderbergen 1, Gent"},"type":"indoor","title":"'Materiële armoede en culturele rijkdom in Afrika' een boeiende ontdekking in de Etnografische Verzamelingen!","description":"In de media wordt het beeld over Afrika bepaald door het cliché van de armoede. Deze expo toont dat Afrikanen creatief zijn in het zoeken van oplossingen om materiële armoede te overstijgen.","schedule":{"stop":"17:00","limit":"50","start":"11:00"}},{"location":{"longitude":"3.7188169","latitude":"51.0566275","description":"DVC veilinghuis, Burgstraat 20/22, Gent"},"type":"indoor","title":"Ienmoal, andermoal…ADZJUZEE!","description":"Luk De Bruyker kruipt in de huid van de verkoper van het veilinghuis DVC om het erfgoed van Theater Taptoe te verkopen… maar lukt hem dat wel? In deze productie wordt hij opnieuw Romain Deconinck, Scrooge, Saint Exupéry en komen heelwat poppen tot leven.","schedule":{"stop":"20:15","limit":"100","start":"19:00"}},{"location":{"longitude":"3.7213135","latitude":"51.0567346","description":"Oude Vismijn, Sint-Veerleplein 5, Gent"},"type":"outdoor","title":"CLUB FM 104.5fm & FAMILYRADIO 105.7fm","description":"10 dagen \"Live\" radio vanop de Gentse Feesten, dagelijks van 15u - 22u.","schedule":{"stop":"22:00","limit":"100","start":"14:00"}},{"location":{"longitude":"3.7198035","latitude":"51.052799","description":"Het Pand, Onderbergen 1, Gent"},"type":"outdoor","title":"Tangram en andere traditionele kinderspelletjes uit China in de Etnografische Verzamelingen","description":"TANGRAM is een Chinees legspel waarbij figuren kunnen worden gevormd uit geometrische stukken. Met zo’n puzzelstuk in de hand speuren en spelen tussen de museumstukken en in de omsloten kloostertuin.   Ouders zijn welkom!","schedule":{"stop":"12:30","limit":"50","start":"11:00"}},{"location":{"longitude":"3.7234722","latitude":"51.0574921","description":"Het Huis van Alijn, Kraanlei 65, Gent"},"type":"outdoor","title":"Pietjesbak met Carlos","description":"Met zijn teerlingenbak onder de parasol of paraplu verslaat Carlos sinds 1972 alle weersvoorspellingen.","schedule":{"stop":"12:00","limit":"1000","start":"10:00"}},{"location":{"longitude":"3.7131195","latitude":"51.0788791","description":"de kring, Sint-Godelievestraat 59, Wondelgem"},"type":"indoor","title":"Travestieshow Feerie au paradis","description":"Travestieshow maar op zijn parijse wijze met pluimen strass pailletten .Met prachtige  kostuums zoals in de moulin rouge,glamour numers,comische acts,prachtig   decor,sfeervolle zaal.En dit jaar md zaza en haar dancers erbij!","schedule":{"stop":"23:30","limit":"100","start":"20:30"}},{"location":{"longitude":"3.7294696","latitude":"51.0578349","description":"Baudelopark, Bibliotheekstraat 7, Gent"},"type":"outdoor","title":"Triplette (Les P'tits Bras, BE)","description":"De topartiesten van Les P'tits Bras brengen een hallucinant circusspektakel. Intense choreografieën, een zeven meter hoge trapeze, eenwielers. Een voorstelling waarbij lachen en huiveren, waanzin en tederheid, spanning en passie dicht bij elkaar liggen.","schedule":{"stop":"18:45","limit":"1000","start":"18:00"}},{"location":{"longitude":"3.7309964","latitude":"51.053939","description":"Oude Beestenmarkt, Oude Beestenmarkt 1, Gent"},"type":"outdoor","title":"Portus Ganda","description":"Het dorp waaruit de stad Gent ontstond werd door Keizer Karel met 1 pennestreek uitgewist. De wijk geeft zich bloot: de ruïnes van abdij en latere citadel, de haven- en textielindustrie, het slachthuis met overdekte veemarkt, ...","schedule":{"stop":"21:00","limit":"50","start":"19:00"}},{"location":{"longitude":"3.7201238","latitude":"51.054856","description":"Aanlegsteiger De Bootjes Van Gent - Rederij Dewaele, Korenlei , Gent"},"type":"outdoor","title":"Verliefd op Gent, of op het punt het te worden?","description":"Luchtige initiatie-rite tot het statuut van Gentenaar. Sterk aanbevolen voor al wie graag in Gent blijft plakken en zich een muileke Gents wil eigen maken","schedule":{"stop":"20:00","limit":"1000","start":"19:00"}},{"location":{"longitude":"3.724532","latitude":"51.055996","description":"François Laurentinstituut, Onderstraat 10, Gent"},"type":"outdoor","title":"Met de wind van achter - Over Flandriens, wielerterroristen en nadarsletjes","description":"Koers is de ziel van België en het hart van Vlaanderen. Karel Declercq is cabaretier en pa van 2 renners. Steek een motor in uw frame en smeer uw kuiten. Karel imiteert koersfiguren en zet u op de fiets. Koers komisch bekeken. Grappig en ontroerend. Maandag 18 juli rustdag in de Tour !","schedule":{"stop":"21:20","limit":"100","start":"20:00"}},{"location":{"longitude":"3.7198035","latitude":"51.052799","description":"Het Pand, Onderbergen 1, Gent"},"type":"outdoor","title":"Rondleidingen in de Etnografische Verzamelingen: Levenswijsheid en geluk! Verrassende voorwerpen uit het traditionele China","description":"Enthousiaste gidsen vertellen bijzondere verhalen over voorwerpen uit het vroegere China. Ga mee op avontuur in de rijke wereld van de Aziatische cultuur en kom in contact met de oosterse wijze van denken en leven en raak vertrouwd met hun esthetiek.","schedule":{"stop":"12:30","limit":"50","start":"11:00"}},{"location":{"longitude":"3.7022031","latitude":"51.0583924","description":"Bij' De Vieze Gasten, Haspelstraat 31, Gent"},"type":"indoor","title":"Prinses gezocht","description":"Actrices Niki De Sitter & Léonthine van Wassenhove sloegen voor ‘Prinses gezocht’ de handen in elkaar en werkten een kindervoorstelling van de bovenste plank uit!","schedule":{"stop":"16:00","limit":"100","start":"15:00"}},{"location":{"longitude":"3.736296","latitude":"51.053063","description":"Wit poortgebouwtje, Voorhoutkaai 43, Gent"},"type":"outdoor","title":"Bijzondere Bomenwandeling","description":"Ook stadsbomen hebben een verhaal te vertellen: ze vormen kerken of kandelaars, bieden zuurstof en bescherming… Laat de bladeren ruisen en leer onze bomen kennen op een tochtje langs de gezelligste groenplekjes van de stad.","schedule":{"stop":"16:30","limit":"50","start":"14:30"}},{"location":{"longitude":"3.7183287","latitude":"51.0583441","description":"Tinnenpot, Tinnenpotstraat 21, Gent"},"type":"outdoor","title":"Team 36","description":"Anya, Rebecca en Tania zijn 3 zotte vrouwen die van theater, improvistatie en Smack the Pony houden en dolgraag spelen, het resultaat is '36'","schedule":{"stop":"18:10","limit":"1000","start":"17:00"}},{"location":{"longitude":"3.7358552","latitude":"51.0554365","description":"Machariuskerk, Sint-Machariusstraat 1, Gent"},"type":"outdoor","title":"Tentoonstelling H²O van Mark Swysen","description":"Op de plaats waar zich in de vroege Milldeeeuwen de waterput van de Sint-Baafsabdij bevond, stelt Mark Swysen enkele installaties tentoon die het begrip \"water\" oproepen in al zijn aspecten: bron van leven én stervensgevaar.","schedule":{"stop":"18:00","limit":"50","start":"15:00"}},{"location":{"longitude":"3.7221175","latitude":"51.0556775","description":"Het Groot Vleeshuis, Groentenmarkt 7, Gent"},"type":"indoor","title":"Levende Jukebox in Groot Vleeshuis","description":"It's alive!Er zit leven in deze machine!  De Human Jukebox brengt de essentie van een eeuw Belgische muziek.  Het publiek kan kiezen uit een ruim repertoire. De inworp is vrij.","schedule":{"stop":"18:00","limit":"100","start":"14:00"}},{"location":{"longitude":"3.7251237","latitude":"51.0559253","description":"Hof Van Ryhove, Onderstraat 20, Gent"},"type":"indoor","title":"Rona Kennedy/Annelies De Nil – Weight Watchers The Musical/Gloryhol","description":"Twee fijne shows voor de prijs van één! Rona is een Schots-Gents cabaretfenomeen die charmeert met haar fijne nummers en onnozele sketches. Annelies acteert de pannen van het dak in haar hilarische monoloog over een puberende rockgroupie.","schedule":{"stop":"21:45","limit":"100","start":"20:00"}},{"location":{"longitude":"3.7533519","latitude":"51.0524071","description":"Theater SCALA, Dendermondsesteenweg 163-165, Gent"},"type":"indoor","title":"Mijn Ferme Lady","description":"Muzikale komedie van Romain Deconinck, in regie van Geert Callebaut. Met o.a. Betty Bouckaert, Manon Soberon, Alain Devos, Lia De Cuyper, Guido Van den Berghe, Patrick Pevenage, Johan Van Hoorde, Steffi Ramont, Marc De Bruycker, Marc Scheire. Première 14 juli om 20u","schedule":{"stop":"23:30","limit":"5000","start":"21:00"}},{"location":{"longitude":"3.72","latitude":"51.05665","description":"Balzaal, Vooruit, Sint-Pietersnieuwstraat 23, Gent"},"type":"indoor","title":"Hotel Jarretelle","description":"De langbenige Pascale Platel verhuurt u graag een kamer voor de nacht en gluurt met u door het sleutelgat naar haar extravagante gasten. Delicieuse dames, burlesque bunnies en drinks on the rocks, welkom in onze cabareteske suite deluxe!","schedule":{"stop":"23:30","limit":"1000","start":"22:00"}},{"location":{"longitude":"3.7287123","latitude":"51.0599955","description":"MIAT, Minnemeers 9, Gent"},"type":"outdoor","title":"Rondleiding Verftuin MIAT","description":"Wist je dat meekrap rood kleurt? Wouw kleurt geel en blauw bekom je uit de plant wede. Nieuwsgierig? Bezoek de plantentuin met gids en maak kennis met 40-tal planten die gebruikt worden voor het natuurlijk verven van textiel. Met reservatie.","schedule":{"stop":"15:30","limit":"50","start":"14:00"}},{"location":{"longitude":"3.7234722","latitude":"51.0574921","description":"Het Huis van Alijn, Kraanlei 65, Gent"},"type":"outdoor","title":"Het Huis van Alijn, museum van de dingen die (n)ooit voorbijgaan","description":"Hier wordt volkscultuur op een eigentijdse en verrassende manier opgevat. Open van 10 tot 18 uur tijdens de Gentse Feesten en gratis voor Gentenaars!","schedule":{"stop":"18:00","limit":"1000","start":"10:00"}},{"location":{"longitude":"3.7165927","latitude":"51.0432035","description":"A Capella Kaffee, Godshuizenlaan 33, Gent"},"type":"outdoor","title":"Natte stadswandeling met Lunch i.s.m. Rederij De Gentenaer","description":"Nieuwe unieke, folklorische wandeling in de stad van Gent met Dille. Of op afspraak !","schedule":{"stop":"13:30","limit":"50","start":"10:30"}},{"location":{"longitude":"3.7198035","latitude":"51.052799","description":"Het Pand, Onderbergen 1, Gent"},"type":"outdoor","title":"Speciale rondleiding ‘Achter de schermen’ in de Etnografische Verzamelingen.","description":"Hoe wordt een voorwerp een museumstuk? Komt elke gift in een vitrine? Werp eens een blik in de reserves. Pas zelf een paar witte handschoenen en betast eens een voorwerp en kom meer te weten over conservatie.   Plaatsen beperkt; reserveren verplicht!","schedule":{"stop":"15:30","limit":"50","start":"14:00"}},{"location":{"longitude":"3.7264272","latitude":"51.0569408","description":"Lakenmetershuis/Willemsfonds -Vrijdagsmarkt, Vrijdagmarkt 24-25, Gent"},"type":"indoor","title":"Vier zonder ruuk deur 't Spelleke van Dei Kluite","description":"Een nieuwe revue, veur alle  gruute kientsjes die Gent kenne en Gents verstoan mee stijte muile Pierke Pierlala in d'uuftrolle.","schedule":{"stop":"23:30","limit":"1000","start":"22:00"}},{"location":{"longitude":"3.7132777","latitude":"51.0609602","description":"Gerechtsgebouw, Opgeëistenlaan 401, Gent"},"type":"outdoor","title":"Het nieuwe gerechtsgebouw","description":"Gedurfde architectuur en industriële en historische relicten ontmoeten elkaar in en rond het nieuwe gerechtsgebouw.","schedule":{"stop":"16:00","limit":"50","start":"14:00"}},{"location":{"longitude":"3.7190681","latitude":"51.0534253","description":"lokettenzaal hoofdzetel VDK spaarbank, Sint-Michielsplein 16, Gent"},"type":"indoor","title":"Hemadi, een kleine geschiedenis","description":"In zijn 'kleine geschiedenis' brengt Hemadi de sporen van zijn vroegste kennismaking met de westerse cultuur, opgetekend in café op voorhanden zijnde bierkaartjes. Deze zeer spontaan tot stand gekomen schetsen werden veelal afgewerkt in het atelier.","schedule":{"stop":"16:30","limit":"50","start":"09:00"}},{"location":{"longitude":"3.7169339","latitude":"51.0522058","description":"Monasterium Poortackere, Oude Houtlei 56, Gent"},"type":"indoor","title":"Expo","description":"Naast zijn muziek brengt Osama in het Monasterium visual art met oude structuren, beelden en tekst van 4000 tot 5000 jaar oud.","schedule":{"stop":"23:30","limit":"100","start":"09:00"}},{"location":{"longitude":"3.7279839","latitude":"51.0580378","description":"secundair kunstintituut - speelplaats - ingang via Baudelohof, Ottogracht 4, Gent"},"type":"outdoor","title":"Elga - Het Panopticum","description":"Elga – Het Panopticum dompelt jou onder in de historiek van Gent waar revolutionaire figuren het voortouw namen. Dit levend museum vind je op de speelplaats van het SKI palend aan het Baudelohof. Een productie in samenwerking met het Vermeylenfonds.","schedule":{"stop":"22:40","limit":"50","start":"22:00"}},{"location":{"longitude":"3.7178529","latitude":"51.0545335","description":"Brasserie Het Volk, Poel 7, Gent"},"type":"outdoor","title":"Café-Chantant","description":"Een mengelmoes van Gentse liedjes. Zitplaats niet verzekerd zonder ontbijt","schedule":{"stop":"13:00","limit":"50","start":"11:00"}},{"location":{"longitude":"3.6297347","latitude":"51.0667128","description":"Schoolhoeve de Campagne, Gijzelstraat 14, Drongen"},"type":"outdoor","title":"Zoektocht","description":"De kinderen verkennen de boerderij en de dieren aan de hand van een aangepaste zoektocht","schedule":{"stop":"18:00","limit":"1000","start":"14:00"}},{"location":{"longitude":"3.7253208","latitude":"51.0545313","description":"Stadhuis, Botermarkt 1, Gent"},"type":"outdoor","title":"'Rechtspraak en gerechtigheid.' Themarondleiding in het Stadhuis.","description":"In het stadhuis werd vroeger recht gesproken. Opvallend is het labyrint in de Pacificatiezaal. Die banmijl kon een aantal keren worden afgelegd als straf voor sommige overtreders van de wet.","schedule":{"stop":"18:15","limit":"50","start":"17:30"}},{"location":{"longitude":"3.7279839","latitude":"51.0580378","description":"secundair kunstintituut - speelplaats - ingang via Baudelohof, Ottogracht 4, Gent"},"type":"outdoor","title":"Elga - Het Panopticum","description":"Elga – Het Panopticum dompelt jou onder in de historiek van Gent waar revolutionaire figuren het voortouw namen. Dit levend museum vind je op de speelplaats van het SKI palend aan het Baudelohof. Een productie in samenwerking met het Vermeylenfonds.","schedule":{"stop":"21:40","limit":"50","start":"21:00"}},{"location":{"longitude":"3.724129","latitude":"51.036375","description":"Plantentuin Universiteit Gent, Karel Lodewijk Ledeganckstraat , Gent"},"type":"indoor","title":"Wandeling langsheen de vezelplanten","description":"Korte bespreking van een hele waaier planten die al door de eeuwen heen vezels leveren voor het vervaardigen van textiel. Hun impact op het milieu en de voornaamste fysische eigenschappen naargelang de soort vezels. (R. Carron)","schedule":{"stop":"16:00","limit":"50","start":"14:30"}},{"location":{"longitude":"3.7270706","latitude":"51.0564691","description":"Sint-Jacobskerk, Bij Sint-Jacobs , Gent"},"type":"outdoor","title":"Tentoonstelling restauratie barokschilderij","description":"Restauratie van het reuzegroot schilderij \"Afkoop van christelijke slaven door de Trinitariërs\" van Jan Van Cleef, 1681.","schedule":{"stop":"17:30","limit":"1000","start":"14:30"}},{"location":{"longitude":"3.72","latitude":"51.05665","description":"Botermarkt, afspraak aan de trappen voor het stadhuis, Botermarkt z/n, Gent"},"type":"outdoor","title":"Radio 2 Avondpost live (16-18)","description":"feestelijke live radio vanop en over  de Gentse Feesten met verrassende studio gasten","schedule":{"stop":"18:00","limit":"50","start":"16:00"}},{"location":{"longitude":"3.7189457","latitude":"51.0584957","description":"Lievekaai /, Gent"},"type":"outdoor","title":"Over blauw bloed en witte billenbijters - zoektocht in het Prinsenhof (zonder gids)","description":"Prinsenhof: meer dan het oord van verdoemenis waar de Gentenaars stroppendragers werden. Een duik in de geschiedenis van deze mooie wijk! Boekje te koop: Kunstglasramen Mestdagh, Drabstr. 2","schedule":{"stop":"00:00","limit":"50","start":"00:00"}},{"location":{"longitude":"3.7277249","latitude":"51.0596007","description":"Los Perros Calientes, Goudstraat 2, Gent"},"type":"indoor","title":"'En Het Grootste Deel Schreven we Samen in Bed'","description":"Voor het vierde jaar op rij brengt het Gentse dichterscollectief 'De Wolven van La Mancha' tien dagen lang een poëtische oase in het hart van de binnenstad. Een plek waar woord en beeld voor verwondering zorgen: uitdagend, bloedstollend mooi en gratis.","schedule":{"stop":"02:00","limit":"50","start":"17:00"}},{"location":{"longitude":"3.7266301","latitude":"51.055272","description":"Feestzone, Belfortstraat , Gent"},"type":"outdoor","title":"Belleman Jean-Pierre Van De Perre","description":"Belleman te zien in het straatbeeld is ter beschikking van de bevolking en feestvierders bij de rondgang van de stroppendragers.","schedule":{"stop":"20:00","limit":"50","start":"16:00"}},{"location":{"longitude":"3.7198035","latitude":"51.052799","description":"Het Pand, Onderbergen 1, Gent"},"type":"outdoor","title":"Speciale rondleiding ‘Achter de schermen’ in de Etnografische Verzamelingen.","description":"Hoe wordt een voorwerp een museumstuk? Komt elke gift in een vitrine? Werp eens een blik in de reserves. Pas zelf een paar witte handschoenen en betast eens een voorwerp en kom meer te weten over conservatie.   Plaatsen beperkt; reserveren verplicht!","schedule":{"stop":"12:30","limit":"50","start":"11:00"}},{"location":{"longitude":"3.6295947","latitude":"51.0671875","description":"Landgoed De Campagne, Gijzelstraat 12, Drongen"},"type":"outdoor","title":"Crea-atelier & volksspelen - dag 3","description":"Met gekleurd zout een mooi kunstwerkje maken. Diverse volksspelen met daaraan verbonden een kleine verrassing.","schedule":{"stop":"16:15","limit":"50","start":"14:45"}},{"location":{"longitude":"3.7294696","latitude":"51.0578349","description":"Baudelopark, Bibliotheekstraat 7, Gent"},"type":"outdoor","title":"Cheap Clowns (BE)","description":"Vaders, hou uw dochters binnen, de Cheap Clowns zijn in het land! In een dolkomische show boordevol circus (bascule, Chinese mast, jonglerie, Duits rad) pikken ze een vrouwelijke schone uit het publiek om haar op hoogst unieke wijze te verleiden.","schedule":{"stop":"19:40","limit":"1000","start":"19:00"}},{"location":{"longitude":"3.7217767","latitude":"51.0534682","description":"Tijuana, Schuurkenstraat 2, Gent"},"type":"indoor","title":"Club Hacienda","description":"Party - DJ's Lanka, Jean S","schedule":{"stop":"00:00","limit":"1000","start":"22:00"}},{"location":{"longitude":"3.7107334","latitude":"51.0373307","description":"Brazza Café rechtover Sint Pieters Station, Koningin Maria Hendrikaplein 66, Gent"},"type":"outdoor","title":"Voor ne ja of voor ne nee, komedie over moeilijkdoeners","description":"theater, komedie  Gentse acteurs Steve De Schepper en Lucas Tavernier spelen met veel verve hun eigen vertaling van Nathalie Sarrautes\"Voor ne ja of voor ne nee\", komedie over moeilijkdoeners  2 maten, 2 boezemvrienden, koek en ei, of is 't schijn?","schedule":{"stop":"22:00","limit":"100","start":"21:00"}},{"location":{"longitude":"3.7279839","latitude":"51.0580378","description":"secundair kunstintituut - speelplaats - ingang via Baudelohof, Ottogracht 4, Gent"},"type":"outdoor","title":"Elga - Het Panopticum","description":"Elga – Het Panopticum dompelt jou onder in de historiek van Gent waar revolutionaire figuren het voortouw namen. Dit levend museum vind je op de speelplaats van het SKI palend aan het Baudelohof. Een productie in samenwerking met het Vermeylenfonds.","schedule":{"stop":"17:40","limit":"50","start":"17:00"}},{"location":{"longitude":"3.6297347","latitude":"51.0667128","description":"Schoolhoeve de Campagne, Gijzelstraat 14, Drongen"},"type":"outdoor","title":"Springkasteel","description":"De kinderen kunnen zich uitleven op het springkasteel","schedule":{"stop":"18:00","limit":"1000","start":"14:00"}},{"location":{"longitude":"3.7076434","latitude":"51.0580853","description":"Toren van Babel, Bargiekaai 1, Gent"},"type":"outdoor","title":"Nils Holgersson 5+","description":"In deze vertelling kruip je samen met Nils op de rug van een gans en beleef je een wonderbaarlijke reis vol grappige interactie, betoverende geluidsdecors en poëtische beelden.","schedule":{"stop":"17:55","limit":"1000","start":"17:00"}},{"location":{"longitude":"3.7533519","latitude":"51.0524071","description":"Theater SCALA, Dendermondsesteenweg 163-165, Gent"},"type":"indoor","title":"The Julian's New Orleans Jazz Friends","description":"Aperitiefconcert alle dagen van de Gentse Feesten in de foyer van Theater Scala. In de prijs is een aperitief inbegrepen!","schedule":{"stop":"13:00","limit":"50","start":"10:00"}},{"location":{"longitude":"3.7183287","latitude":"51.0583441","description":"Tinnenpot, Tinnenpotstraat 21, Gent"},"type":"indoor","title":"Leute","description":"Theaterfenomeen SEF (wok bekend als Jozef Vanneste). Een menselikke vwoorstellinge uut het leven gegrepen, met ne lach en ne troan wok toegankelijk en begrijpelijk voe niet-West-Vlaomingen wei! Ge moe geweun kom! tot ton","schedule":{"stop":"16:20","limit":"100","start":"15:00"}},{"location":{"longitude":"3.7284666","latitude":"51.0486712","description":"usEUm, Platteberg 19, Gent"},"type":"outdoor","title":"Afscheid van de waalse krook","description":"Tentoonstelling Michel Flamme, Sarah Van de Vijver, Prez","schedule":{"stop":"23:00","limit":"50","start":"14:00"}},{"location":{"longitude":"3.7278414","latitude":"51.0554501","description":"KANTL, Koningstraat 18, Gent"},"type":"outdoor","title":"Inna Shyshkovska","description":"Mozart - Beethoven","schedule":{"stop":"17:00","limit":"50","start":"16:00"}},{"location":{"longitude":"3.7198035","latitude":"51.052799","description":"Het Pand, Onderbergen 1, Gent"},"type":"outdoor","title":"Workshops voor kinderen in de Etnografische Verzamelingen","description":"Kruip in de huid van een heuse ontdekkingsreiziger. Verken de wereld aan de hand van voorwerpen en verhalen.   Speel spelletjes van verre volkeren. Zo kom je te weten hoe kinderen zich daar amuseren en groot worden. Ouders welkom. Schrijf tijdig in!","schedule":{"stop":"15:00","limit":"50","start":"14:00"}},{"location":{"longitude":"3.717214","latitude":"51.0595882","description":"Cultuurkapel, Sint-Antoniuskaai 10, Gent"},"type":"indoor","title":"Tès Goe Weere, Vrie Goe Weere, bij Goe Weere","description":"Shit waar, 2 uure ongeluufelijke kluuterijen, sketchen en liedjes, deur den Ambassadeur van de Gentse Leute en zijn vrienden: Petra, An Fleur en Jan De Raedt. Orkest: 5 Men Band. Gelieve nie 't hoesten aub.","schedule":{"stop":"22:30","limit":"100","start":"20:00"}},{"location":{"longitude":"3.7171145","latitude":"51.0555274","description":"School van Toen, Klein Raamhof 8, Gent"},"type":"outdoor","title":"Tentoonstelling : \" Spiegeltje spiegeltje aan de wand...\"","description":"Een tentoonstelling waarbij we teruggaan naar het jaar 1925.Een presentatie uit de collectie van handgemaakte kleren en fantastische hoeden van Vivien Delbaere.","schedule":{"stop":"17:00","limit":"50","start":"14:00"}},{"location":{"longitude":"3.7389401","latitude":"51.0485796","description":"Astridpark, Ferdinand Lousbergskaai , Gent"},"type":"outdoor","title":"Kuitbeen (workshop) - WiSPER (BE) - betalend","description":"Een workshop van Isabelle Handschoenserker waarbij de deelnemers op zoek gaan naar beelden en theatrale vormen. Voor wie houdt van beweging en het absurde.","schedule":{"stop":"18:00","limit":"50","start":"14:00"}},{"location":{"longitude":"3.7287123","latitude":"51.0599955","description":"Minnemeers (NT2Gent), Minnemeers 9, Gent"},"type":"indoor","title":"Idool 1900","description":"Met deze voorstelling brengen Walter De Buck en Wim Claeys een bloemlezing aan dialectliedjes & filmpjes uit de oude doos. Met: Olle Geris (zang), Marc Hauman (zang), Wouter Vandenabeele (viool)en Maarten Decombel (gitaar) organisatie: vzw Trefpunt","schedule":{"stop":"23:00","limit":"1000","start":"21:30"}},{"location":{"longitude":"3.719132","latitude":"51.0534201","description":"Startplaats, Sint-Michielsplein , Gent"},"type":"outdoor","title":"Wandelzoektocht Pasar Gent - Eeklo vzw","description":"De 17e editie van de Wandelzoektocht van Pasar laat je kennismaken met interessante gebouwen en bezienswaardigheden waarbij werknemers centraal staan. Kortom, een boeiende en plezante uitstap voor het ganse gezin!","schedule":{"stop":"00:00","limit":"50","start":"00:00"}},{"location":{"longitude":"3.7167725","latitude":"51.0427045","description":"Brasserie Yanko, Henleykaai 4, Gent"},"type":"indoor","title":"Rosa / De Laatste Roos","description":"Twee komische monologen voor de prijs van één:   Roza: een wc-madam en de mannen in haar leven.  De Laatste Roos: een lustige weduwe opnieuw verliefd.  Tekst en regie: Frans Van Lancker.  Spel: Natalie Donck","schedule":{"stop":"17:30","limit":"100","start":"15:30"}},{"location":{"longitude":"3.7171713","latitude":"51.0563648","description":"Pacificatiehuis, Burgstraat 55, Gent"},"type":"outdoor","title":"Van de Graven van Vlaanderen tot onze huidige gemeenteraad. ","description":"We ontdekken de democratische evolutie in onze stad. Gastheer: Jeroen Lemaitre, OCMW-raadslid.","schedule":{"stop":"12:30","limit":"50","start":"10:30"}},{"location":{"longitude":"3.702715","latitude":"51.0662256","description":"Museum Dr. Guislain, Jozef Guislainstraat 43, Gent"},"type":"indoor","title":"Outsiders: kunst in de marge","description":"De werelden van kunst en waanzin hebben elkaar doorheen de geschiedenis met regelmaat geïnspireerd. Outsiderkunstenaars maken eigenzinige omzwervingen door de wereld van kunst, esthetiek en creativiteit.","schedule":{"stop":"17:00","limit":"100","start":"09:00"}},{"location":{"longitude":"3.7270658","latitude":"51.048845","description":"Minardschouwburg, Walpoortstraat 15, Gent"},"type":"outdoor","title":"De Mannen","description":"Het sluitstuk van de trilogie ‘de Soprano’s van Ledeberg'","schedule":{"stop":"21:30","limit":"50","start":"20:00"}},{"location":{"longitude":"3.7169339","latitude":"51.0522058","description":"Monasterium Poortackere, Oude Houtlei 56, Gent"},"type":"indoor","title":"Osama Abdulrasol","description":"Als Gents Irakese muzikant en visual artist brengt traditionele Babylonische muziek op Quanun uit zijn album Elarouse.","schedule":{"stop":"21:00","limit":"1000","start":"20:00"}},{"location":{"longitude":"3.7226146","latitude":"51.0569531","description":"Aanlegsteiger Boat in Gent, bij Gravensteen (50m), Kraanlei , Gent"},"type":"outdoor","title":"De Piratenboot + gratis ijsje. Duur 40 min.","description":"Maat Piraat springt aan boord want boeven zitten hem op de hielen. We gaan per boot op zoek naar een geheime schat en hij vertelt onderweg geweldige verhalen over zijn wedervaren om zijn droom te vervullen...","schedule":{"stop":"14:40","limit":"1000","start":"14:00"}},{"location":{"longitude":"3.72","latitude":"51.05665","description":"S.M.A.K., Citadelpark 2, Gent"},"type":"outdoor","title":"Carlos Rodriguez-Méndez | Agua Caliente/Hot Water","description":"De Spaanse kunstenaar Carlos Rodríguez-Méndez plaatst een reusachtige minimale sculptuur in de Kunst Nu-ruimte van S.M.A.K.","schedule":{"stop":"18:00","limit":"50","start":"10:00"}},{"location":{"longitude":"3.7201238","latitude":"51.054856","description":"Aanlegsteiger De Bootjes van Gent-Rederij Dewaele, Korenlei , Gent"},"type":"outdoor","title":"Historische rondvaart doorheen het middeleeuwse Gent + gratis ijsje. Duur: 40 min.","description":"Rondvaart met gids op Leie en Lieve. Om de de 15 minuten vertrekt er een bootje. Reservatie: niet nodig, tenzij voor groepen.","schedule":{"stop":"00:00","limit":"1000","start":"10:00"}},{"location":{"longitude":"3.7198089","latitude":"51.0593912","description":"Augustijnenklooster Sint-Stefanus, Academiestraat 1, Gent"},"type":"indoor","title":"Filmvoorstelling  \"Plastic Planet\"","description":"We zijn allemaal verslaafd aan plastic. De mensheid vergiftigt zichzelf langzaam maar zeker...  een onthutsende documentaire...","schedule":{"stop":"15:40","limit":"50","start":"14:00"}},{"location":{"longitude":"3.702715","latitude":"51.0662256","description":"Museum Dr. Guislain, Jozef Guislainstraat 43, Gent"},"type":"outdoor","title":"Geschiedenis van de psychiatrie","description":"Omgaan met waanzin doorheen de tijden: een mengeling van magie, religie, dwang en zorg, controle en wetenschap. Waar geen rede mee te rijmen valt, wil men bestraffen, zalven, verzorgen, genezen. Een fascinerende geschiedenis.","schedule":{"stop":"17:00","limit":"100","start":"09:00"}},{"location":{"longitude":"3.7090273","latitude":"51.0690921","description":"De Kring S.I.V.I, Maïsstraat 20, Gent"},"type":"outdoor","title":"Sissie Parker With Dance Team: Trip Around The World (Travestie Revue)","description":"Nieuwe travestie revue, Trip Around The World. Wij nemen U mee rond de wereld met een dance team en 3 travestie's, vol glitter, dans, en showkostuum's. Een 2 uur durend spektakel. Zaal voorzien van airco en gratis parking.","schedule":{"stop":"23:00","limit":"100","start":"20:00"}},{"location":{"longitude":"3.7000116","latitude":"51.0502225","description":"Algemeen Ziekenhuis Jan Palfijn Gent AV - auditorium site 1, Henri Dunantlaan 5, Gent"},"type":"outdoor","title":"FIJN IN JAN PALFIJN: Fabulous Croonersongs","description":"Gentse croonerzanger Marc Martin brengt prachtige 'golden oldies': Dean Martin, Frank Sinatra, Engelbert Humperdinck, Matt Monro, Sammy Davis jr., Bobby Darin, Vick Dana en vele anderen.  'Easy listening' om bij weg te dromen!","schedule":{"stop":"15:45","limit":"100","start":"14:30"}},{"location":{"longitude":"3.7234722","latitude":"51.0574921","description":"Het Huis van Alijn, Kraanlei 65, Gent"},"type":"outdoor","title":"Flipke Flap","description":" Flipke heeft een grote mond en is van niets bang.  In het park haalt hij allerhande kattekwaad uit.  Flipke wordt echter meegelokt door de wolf. Maar Pierke en zijn vrienden grijpen in.","schedule":{"stop":"16:30","limit":"1000","start":"15:00"}},{"location":{"longitude":"3.7234722","latitude":"51.0574921","description":"Het Huis van Alijn, Kraanlei 65, Gent"},"type":"outdoor","title":"Kantdemonstraties door de kantclub Sint-Katelijne","description":"Stropkant, Cluny, florence, Russische kant, moderne kant, bloemwerk, duchesse kant of Vlaamse kant: de leden van de kantclub hebben het allemaal in hun vingers!","schedule":{"stop":"12:00","limit":"1000","start":"10:00"}},{"location":{"longitude":"3.7213135","latitude":"51.0567346","description":"Sint-Veerleplein /, Gent"},"type":"outdoor","title":"Neuzen in historisch Gent (zoektocht zonder gids)","description":"Onder het wakende oog van de draak op het Belfort, ga je op ontdekking in de stad, langs grote monumenten en onbekende pareltjes.","schedule":{"stop":"00:00","limit":"50","start":"00:00"}},{"location":{"longitude":"3.7270351","latitude":"51.0569242","description":"Ons Huis - Fernandezzaal, Vrijdagmarkt 9, Gent"},"type":"outdoor","title":"Leven in Gent/Dallas","description":"Leven in Gent/Dallas - een andere kijk op wonen. De bezoekers van de feesten leren een ander Gent met zijn bewoners kennen. Een Gent voorbij de feestkern die onze perceptie in vraag stelt over hoe wij een sociale woonwijk beleven.","schedule":{"stop":"20:00","limit":"1000","start":"14:00"}},{"location":{"longitude":"3.7287123","latitude":"51.0599955","description":"MIAT, Minnemeers 9, Gent"},"type":"outdoor","title":"Expo 'Katoenkabaal'","description":"Gent was ooit de rumoerigste van de Vlaamse textielsteden. In het MIAT zie je de evolutie van katoenplant tot afgewerkt product. Ontdek ook de vele eigenschappen van textielvezels en het hoogtechnologisch textiel.","schedule":{"stop":"18:00","limit":"100","start":"10:00"}},{"location":{"longitude":"3.7282741","latitude":"51.0560619","description":"Charlatan, Vlasmarkt 6, Gent"},"type":"outdoor","title":"Marvelas Something","description":"Gratis caféconcert: Zalige Zondag legendes – ex-Members of Marvelas","schedule":{"stop":"00:00","limit":"1000","start":"23:00"}},{"location":{"longitude":"3.7253208","latitude":"51.0545313","description":"Stadhuis, Botermarkt 1, Gent"},"type":"outdoor","title":"'Rechtspraak en gerechtigheid.' Themarondleiding in het Stadhuis.","description":"In het stadhuis werd vroeger recht gesproken. Opvallend is het labyrint in de Pacificatiezaal. Die banmijl kon een aantal keren worden afgelegd als straf voor sommige overtreders van de wet.","schedule":{"stop":"15:15","limit":"50","start":"14:30"}},{"location":{"longitude":"3.72","latitude":"51.05665","description":"S.M.A.K., Citadelpark 2, Gent"},"type":"outdoor","title":"Tomorrow is the Question | Collectie S.M.A.K.","description":"S.M.A.K.stelt een deel van haar omvangrijke collectie tentoon.","schedule":{"stop":"18:00","limit":"50","start":"10:00"}},{"location":{"longitude":"3.7287123","latitude":"51.0599955","description":"MIAT, Minnemeers 9, Gent"},"type":"outdoor","title":"Evenement Druk onder stoom","description":"Het MIAT heeft een indrukwekkende historische drukkerij. Enthousiaste vrijwilligers werken aan de drukmachines. Geniet ook van 'drukken' in filmfragmenten uit diverse documentaires en langspeelfilms.","schedule":{"stop":"18:00","limit":"100","start":"10:00"}},{"location":{"longitude":"3.7214225","latitude":"51.0515844","description":"Hotel d'Hane Steenhuyse, Veldstraat 55, Gent"},"type":"indoor","title":"Rondleidingen in Hotel d'Hane Steenhuyse","description":"Uitzonderlijk kan het Hotel d'Hane Steenhuyse - een 18de-eeuws stadspaleis - onder begeleiding van een gids worden bezocht.","schedule":{"stop":"17:00","limit":"100","start":"16:00"}},{"location":{"longitude":"3.7198089","latitude":"51.0593912","description":"Augustijnenklooster Sint-Stefanus, Academiestraat 1, Gent"},"type":"indoor","title":"Filmvoorstelling 'The Age of STUPID'","description":"THE AGE OF STUPID    De grootste klimaatfilm sinds \"An Inconvenient Truth\"","schedule":{"stop":"17:00","limit":"50","start":"15:30"}},{"location":{"longitude":"3.7214225","latitude":"51.0515844","description":"Hotel d'Hane Steenhuyse, Veldstraat 55, Gent"},"type":"indoor","title":"De generaelen staet van een goede famielde in Gent","description":"Het publiek maakt enkele scènes mee uit het leven van graaf en gravin d'Hane de Steenhuyse en hun personeel in 1808.","schedule":{"stop":"12:30","limit":"50","start":"10:30"}},{"location":{"longitude":"3.724129","latitude":"51.036375","description":"Plantentuin UGent, Karel Lodewijk Ledeganckstraat 35, Gent"},"type":"indoor","title":"Ginds, tussen de netels","description":"Dimitri Verhulst ontbeent Lorca's Bloedbruiloft en creërt er een totaal nieuwe voorstelling mee. Hij verplaatst de clanvete naar een denkbeeldig Belgisch dorp, 'de hoofdstad der brandnetels'.","schedule":{"stop":"22:30","limit":"1000","start":"21:00"}},{"location":{"longitude":"3.7279839","latitude":"51.0580378","description":"secundair kunstintituut - speelplaats - ingang via Baudelohof, Ottogracht 4, Gent"},"type":"outdoor","title":"Elga - Het Panopticum","description":"Elga – Het Panopticum dompelt jou onder in de historiek van Gent waar revolutionaire figuren het voortouw namen. Dit levend museum vind je op de speelplaats van het SKI palend aan het Baudelohof. Een productie in samenwerking met het Vermeylenfonds.","schedule":{"stop":"18:40","limit":"50","start":"18:00"}},{"location":{"longitude":"3.7151519","latitude":"51.0439708","description":"Ingang STAM, Godshuizenlaan 2, Gent"},"type":"outdoor","title":"De Bijlokesite - NIEUW!","description":"Een plek waar studenten, muzikanten en bezoekers van het STAM te vinden zijn… Binnen de muren van deze site doen we het verhaal van haar vroegere bewoners en de historische gebouwen, tot de activiteiten en architectuur van vandaag.","schedule":{"stop":"16:00","limit":"50","start":"14:30"}},{"location":{"longitude":"3.72","latitude":"51.05665","description":"10 Days Off - Vooruit, Sint-Pietersnieuwstraat , Gent"},"type":"outdoor","title":"Guy J (ISR)","description":"Een israelische electro producer die onlangs een aantal succesvolle releases heeft gehad op Bedrock Records  inclusief zijn debuut album Esperanza.","schedule":{"stop":"05:55","limit":"5000","start":"23:00"}},{"location":{"longitude":"3.7226146","latitude":"51.0569531","description":"Aanlegsteiger Boat in Gent, bij Gravensteen (50m), Kraanlei , Gent"},"type":"outdoor","title":"Boottocht \"Gent Compleet\" + gratis ijsje. Duur: 90 min.","description":"Gegidste boottocht op Leie, Lieve, Ketelvaart & Schelde. Ook doorvaart onder 't Laurentplein. 1000 jaar architectuur en verhalen op het parcours. Tickets afhalen van vanaf 1 uur vóór afvaart, ten laatste 15 minuten vóór afvaart.","schedule":{"stop":"15:30","limit":"1000","start":"14:00"}},{"location":{"longitude":"3.7213135","latitude":"51.0567346","description":"Sint-Veerleplein /, Gent"},"type":"outdoor","title":"Sherlock Holmes in het Patershol (zoektocht zonder gids)","description":"Zoektocht in 1 van Gents oudste en gezelligste wijken. Aan de hand van een leidraad, vragen en raadsels leer je het Patershol beter kennen. Boekje te koop: Kunstglasramen Mestdagh, Drabstr. 2","schedule":{"stop":"00:00","limit":"50","start":"00:00"}},{"location":{"longitude":"3.72","latitude":"51.05665","description":"AC Zuid, Woodrow Wilsonplein 1, Gent"},"type":"outdoor","title":"Assistentie voor personen met een handicap","description":"Gedurende de volledige periode van de Gentse Feesten is er de mogelijkheid om een gratis assistent te vragen om personen met een handicap te begeleiden om zo de Gentse Feesten te kunnen bezoeken. Dit jaar wordt de assistentie uitgevoerd door vzw Intro.","schedule":{"stop":"23:00","limit":"100","start":"14:00"}},{"location":{"longitude":"3.7282741","latitude":"51.0560619","description":"Charlatan, Vlasmarkt 6, Gent"},"type":"outdoor","title":"The Whodads","description":"Zaal: Rockabilly Day presenteert - Mariachi meets Rockabilly, Tito Puente meets John Barry o.l.v. Steven Jansens","schedule":{"stop":"00:00","limit":"1000","start":"22:00"}},{"location":{"longitude":"3.7178529","latitude":"51.0545335","description":"Brasserie Het Volk, Poel 7, Gent"},"type":"outdoor","title":"Ontbijt","description":"Uitgebreid ontbijtbuffet (verse koeken, broodjes, omeletten, spek, fruitsap, koffie, thee enz...) Reservatie bevestigd bij betaling en afhaling kaarten. Zitplaatsen verzekerd !","schedule":{"stop":"10:15","limit":"50","start":"09:00"}},{"location":{"longitude":"3.7234722","latitude":"51.0574921","description":"Het Huis van Alijn, Kraanlei 65, Gent"},"type":"outdoor","title":"Belcanto-ontbijt in het Huis van Alijn","description":"Geniet in de binnentuin van een lekker ontbijt met een streepje muziek. Keuze tussen een Belcanto-ontbijt (€ 7) en een Belcanto-Royal-ontbijt (mét bubbels - € 10). Welkom tussen 10 en 12 uur! Graag aanmelden vanaf 10 pers. Dit is echter geen reservatie.","schedule":{"stop":"12:00","limit":"1000","start":"10:00"}},{"location":{"longitude":"3.72076","latitude":"51.05471","description":"Aanlegsteiger Gent Watertoerist, Graslei , Gent"},"type":"outdoor","title":"Kindervoorstelling Pappa Langkous","description":"Rondvaart in de binnenstad met Pappa Langkous.De Gentse kinderen krijgen een stoomcursus Langkous-amusement.  Vertek : 15 u Graslei - Gent-Watertoerist  Prijs : € 6,00/kind (-12 jaar)- € 10,00/Volw. met een gratis Vedett bier. Reservatie verplicht.","schedule":{"stop":"16:00","limit":"50","start":"15:00"}},{"location":{"longitude":"3.7270658","latitude":"51.048845","description":"Minardschouwburg, Walpoortstraat 15, Gent"},"type":"outdoor","title":"Vrijmetselarij, het verhaal van passer en winkelhaak","description":"Vrijmetselarij blijft gehuld in een waas van geheimzinnigheid. We lichten een tipje van de sluier op: ontstaan en invloed van de organisatie, reacties van Kerk en Staat, de Gentse maçons en hun 'werkplaatsen',...","schedule":{"stop":"12:00","limit":"50","start":"10:00"}},{"location":{"longitude":"3.723231","latitude":"51.0546855","description":"Bretoens Pannenkoekenhuis Gwenola, Donkersteeg 16, Gent"},"type":"indoor","title":"Café Cantant, Willy Bart en zijne kluts : optreden","description":"Nen hutsepot van Gentsche liedjes mee Willy Bart, Pat Remue & Sabien","schedule":{"stop":"14:30","limit":"100","start":"12:30"}},{"location":{"longitude":"3.7169339","latitude":"51.0522058","description":"Monasterium Poortackere, Oude Houtlei 56, Gent"},"type":"indoor","title":"Lupa Luna","description":"Het nieuwe project van Greet Garriau met Sam Van Ingelgem, Thomas Noël en all-round muzikant Geert Waegeman.","schedule":{"stop":"23:30","limit":"1000","start":"22:00"}},{"location":{"longitude":"3.6872139","latitude":"51.020809","description":"Kortrijksesteenweg /, Gent"},"type":"outdoor","title":"Zoektocht in het Miljoenenkwartier (zonder gids)","description":"Vandaag is het Miljoenenkwartier een mondaine woonwijk, net geen 100 jaar geleden was hier een Wereldtentoonstelling. Boekje te koop: Kunstglasramen Mestdagh, Drabstr. 2","schedule":{"stop":"00:00","limit":"50","start":"00:00"}},{"location":{"longitude":"3.7287123","latitude":"51.0599955","description":"MIAT, Minnemeers 9, Gent"},"type":"outdoor","title":"Matchbox on Tour","description":"Twee verschillende kunstenaars : Nina Stoupina en Conny Kuilboer onderlegt in verschillende disciplines, elk met andere etnische wortels, andere vormen van beelexpressie. De matchbox staat gestationeerd aan het MIAT. Opening matchbox 17/7 om 14.30u","schedule":{"stop":"20:00","limit":"50","start":"14:30"}},{"location":{"longitude":"3.7254561","latitude":"51.0536709","description":"Belfort, Sint-Baafsplein , Gent"},"type":"outdoor","title":"Spel van de slotenmaker","description":"Kinderen tussen 7 en 12 jaar leren in een speelse en interactieve wandeling boordevol weetjes het belfort beter kennen. Je gaat er op zoek naar de enige echte sleutel die past op de schat van het secreet.","schedule":{"stop":"17:00","limit":"50","start":"10:00"}},{"location":{"longitude":"3.7245619","latitude":"51.0528708","description":"HETEKOEKJE, Bennesteeg 1-3, Gent"},"type":"indoor","title":"Helderziende Dominique Delaunoy","description":"Geeft inzicht via kaartleggen - terug in balans brengen via Bachbloesems - Controle negatieve energie & entiteiten via pendel - Info omtrent esoterische cursussen.","schedule":{"stop":"00:00","limit":"50","start":"14:00"}},{"location":{"longitude":"3.7227266","latitude":"51.0576395","description":"Infostand Vizit, Corduwaniersstraat 4, Gent"},"type":"outdoor","title":"Prinsenhof Achter Gesloten Deuren","description":"Met de sleutels op zak keren we het Prinsenhof binnenstebuiten. Een aantal gebouwen openen hun deuren en gunnen ons een blik achter de schermen van deze charmante buurt, gelegen tussen het Gravensteen en het Rabot.","schedule":{"stop":"16:00","limit":"50","start":"14:00"}},{"location":{"longitude":"3.7253208","latitude":"51.0545313","description":"Stadhuis, Botermarkt 1, Gent"},"type":"outdoor","title":"'Rechtspraak en gerechtigheid.' Themarondleiding in het Stadhuis.","description":"In het stadhuis werd vroeger recht gesproken. Opvallend is het labyrint in de Pacificatiezaal. Die banmijl kon een aantal keren worden afgelegd als straf voor sommige overtreders van de wet.","schedule":{"stop":"16:15","limit":"50","start":"15:30"}},{"location":{"longitude":"3.7021974","latitude":"51.0648089","description":"Poezenboot, Nieuwevaart 300, Gent"},"type":"indoor","title":"Geleide bezoeken aan Vlaanderens enige drijvende dierenasiel.","description":"De Poezenboot is uniek als opvangcentrum voor gewonde en verwaarloosde poezen. Volledig gedragen door vrijwilligers. Geleide bezoeken mogelijk. Groepen + 8 pers : gelieve te reserveren !","schedule":{"stop":"18:00","limit":"50","start":"14:00"}},{"location":{"longitude":"3.72","latitude":"51.05665","description":"Museum voor Schone Kunsten, Citadelpark , Gent"},"type":"outdoor","title":"ZAALTEKSTEN voor  kinderen","description":"Zaalteksten voor kinderen van 6 tot 12 jaar","schedule":{"stop":"18:00","limit":"50","start":"10:00"}},{"location":{"longitude":"3.7195404","latitude":"51.0574957","description":"NTGent Arca, Sint-Widostraat 4, Gent"},"type":"indoor","title":"Liquid Love Hotel","description":"Een koppel van middelbare leeftijd ontmoet een tegendraads hoertje en een gigolo van weinig woorden. Verborgen agenda’s en een broek vol goesting maken van Liquid Love Hotel een bij momenten hilarische tragikomedie die ook tot nadenken stemt.","schedule":{"stop":"22:05","limit":"1000","start":"20:30"}},{"location":{"longitude":"3.7282741","latitude":"51.0560619","description":"Charlatan, Vlasmarkt 6, Gent"},"type":"outdoor","title":"The Revelaires","description":"Zaal: Rockabilly Day presenteert – instrumentale surfrock voor fans van o.a. Dick Dale, The Surfaris, …","schedule":{"stop":"00:00","limit":"1000","start":"22:00"}},{"location":{"longitude":"3.72648","latitude":"51.04269","description":"Portaal OLV Sint-Pieterskerk, Sint-Pietersplein /, Gent"},"type":"outdoor","title":"Om en bij de OLV Sint-Pieterskerk","description":"De Sint-Pieterskerk torent al eeuwen uit boven monniken, Pieterlingen, soldaten, arbeiders, foorgangers en studenten. Neem een kijkje in deze prachtige barokkerk en omgeving.","schedule":{"stop":"13:00","limit":"50","start":"11:00"}},{"location":{"longitude":"3.7287123","latitude":"51.0599955","description":"MIAT, Minnemeers 9, Gent"},"type":"outdoor","title":"Open viltatelier","description":"Vilten is hip! Deze oeroude techniek, waarbij je van wol vilt maakt, vind je vandaag in juwelen, tassen en zelfs tapijten. Koop een zakje wol en ontdek de basisknepen van het vilten. Kom en ga, zoals jij het wilt.","schedule":{"stop":"13:00","limit":"50","start":"10:00"}},{"location":{"longitude":"3.7254561","latitude":"51.0536709","description":"Belfort, Sint-Baafsplein , Gent"},"type":"indoor","title":"Belfortcafé","description":"De deuren van de Lakenhalle staan voor de gelegenheid van de Gentse Feesten open voor de dorstigen onder ons!","schedule":{"stop":"18:00","limit":"100","start":"13:00"}},{"location":{"longitude":"3.7201238","latitude":"51.054856","description":"Aanlegsteiger De Bootjes Van Gent - Rederij Dewaele, Korenlei , Gent"},"type":"outdoor","title":"Lichtroze oortjes. Duur 1 uur","description":"Vrolijke, ontdeugende en licht erotische vertellingen uit verschillende windstreken, tot je weer aan land stapt met zeemansbenen en licht tintelende oortjes, door Veerle Ernalsteen op een varende boot.","schedule":{"stop":"22:00","limit":"1000","start":"21:00"}},{"location":{"longitude":"3.7264994","latitude":"51.0428007","description":"Kusnthal Sint-Pietersabdij, Sint-Pietersplein 9, Gent"},"type":"indoor","title":"Repelsteeltje","description":"Sprookje bewerkt met het Gentse Pierke","schedule":{"stop":"16:30","limit":"1000","start":"15:00"}},{"location":{"longitude":"3.7324861","latitude":"51.0742429","description":"De Buurtloods,, Patrijsstraat 10, Gent"},"type":"outdoor","title":"Casa Bordo","description":"Voklstoneel-komedie in drie bedrijven van Lea Van Volsem. In 't Gents In \"De Buurtlloods\" Patrijsstraat 10, Gent. Mariette wordt de erfgename van een heel speciale erfenis .","schedule":{"stop":"22:30","limit":"1000","start":"19:30"}},{"location":{"longitude":"3.7294696","latitude":"51.0578349","description":"Baudelopark, Bibliotheekstraat 7, Gent"},"type":"outdoor","title":"Here begins the story (Celso y Frana, ES)","description":"Een man en een vrouw, een ruimte en overal boeken. De geur van papier en inkt. Samen brengen de man en de vrouw woorden tot leven. Celso y Frana vermengt partneracrobatie en dans met drama en poëzie in een gepassioneerde voorstelling.","schedule":{"stop":"17:40","limit":"1000","start":"17:00"}},{"location":{"longitude":"3.7285385","latitude":"51.0557895","description":"Kinky Star, Vlasmarkt 9, Gent"},"type":"outdoor","title":"Dj Jasper","description":"Voor degene met de onstilbare honger naar muziek: zing, dans, huil, bid, lach en bewonder het geluidsuniversum van DJ Jasper!","schedule":{"stop":"05:00","limit":"50","start":"23:00"}},{"location":{"longitude":"3.7294696","latitude":"51.0578349","description":"Baudelopark, Bibliotheekstraat 7, Gent"},"type":"outdoor","title":"Circusworkshops voor kinderen (6-12 jaar)","description":"Wil je zelf circusartiest worden? Dat kan! Onder ervaren begeleiding van Circusplaneet kan je gratis allerlei zotte circustechnieken uitproberen: luchtacrobatie, jongleren, diabolo, ... Gelieve vooraf in te schrijven aan het onthaal.","schedule":{"stop":"18:00","limit":"50","start":"15:00"}},{"location":{"longitude":"3.7301691","latitude":"51.0498626","description":"Aquamuse (Schip), Kuiperskaai 24, Gent"},"type":"indoor","title":"SABIJN aMUZE-ert op 't WATER","description":"Sabijn brengt een totaal show waarin je haar te zien zal krijgen zoals nooit te voren.  Acterend, zingend en Swingend, dansend, schudden en beven en vooral beleven.","schedule":{"stop":"22:30","limit":"1000","start":"20:00"}},{"location":{"longitude":"3.7198089","latitude":"51.0593912","description":"Augustijnenklooster Sint-Stefanus, Academiestraat 1, Gent"},"type":"indoor","title":"Demonstratie \"Restylen oude kledij\"","description":"Restylen van oude kledij! Demonstratie trendy, exclusieve en toch budgetvriendelijke mode...","schedule":{"stop":"17:00","limit":"50","start":"14:00"}},{"location":{"longitude":"3.72076","latitude":"51.05471","description":"Aanlegsteiger Gent Watertoerist, Graslei , Gent"},"type":"outdoor","title":"Theater op het water i.s.m. theater Trac - \"Ganda Historica\"","description":"De toeschouwers worden per open boot naar de acteurs gebracht.Met \"Ganda Literatura\" wordt aandacht besteed aan de Gentse schrijvers Maurice Maeterlinck, Jean Ray, Cyriel Buysse,gezusters Loveling.   Prijs : € 10,00/pers.Reservatie verplicht.","schedule":{"stop":"19:30","limit":"50","start":"18:30"}},{"location":{"longitude":"3.7338082","latitude":"51.0604437","description":"Zaal Ovaki, Ham 139, Gent"},"type":"outdoor","title":"Goe Bezig!","description":"Martin zwiept zijn bezem doorheen de heetste hangijzers die ons dagelijks schaamteloos worden aangereikt. De Dalai Lama, Luc Versteylen, Roger Van Gheluwe - en verder veel ander nieuws over onze politici en over uzelf...","schedule":{"stop":"20:45","limit":"50","start":"19:30"}},{"location":{"longitude":"3.7266397","latitude":"51.0530324","description":"St.-Baafskathedraal, Sint-Baafsplein , Gent"},"type":"outdoor","title":"Geleid bezoek crypte St.-Baafskathedraal","description":"rondleiding in de crypte van de St.-Baafskathedraal","schedule":{"stop":"13:00","limit":"50","start":"11:30"}},{"location":{"longitude":"3.72392","latitude":"51.05039","description":"Kouter, Kouter , Gent"},"type":"outdoor","title":"Gorki","description":"Podium Kouter","schedule":{"stop":"21:00","limit":"10000","start":"20:00"}},{"location":{"longitude":"3.7322261","latitude":"51.0542559","description":"Oude Beestenmarkt /, Gent"},"type":"outdoor","title":"Zoektocht in Portus Ganda - meer dan water alleen! (zonder gids)","description":"Deze zoektocht leidt je van de oudste nederzettingen naar de nieuwste haven van de stad. Boekje te koop: Kunstglasramen Mestdagh, Drabstr. 2","schedule":{"stop":"00:00","limit":"50","start":"00:00"}},{"location":{"longitude":"3.7198035","latitude":"51.052799","description":"Het Pand, Onderbergen 1, Gent"},"type":"outdoor","title":"Camiel van Breedam, een modern kunstenaar op bezoek in de Etnografische Verzamelingen","description":"De kunstenaar Camiel van Breedam laat zich inspireren door etnografische objecten. Kom een poëtisch deeltje van zijn oeuvre ontdekken en deel zijn verwondering. Wilt u meer weten over deze intrigerende dialoog tussen voorwerpen, vraag het gerust!","schedule":{"stop":"17:00","limit":"50","start":"11:00"}},{"location":{"longitude":"3.7266301","latitude":"51.055272","description":"Feestzone, Belfortstraat , Gent"},"type":"outdoor","title":"Buitenlandse Bellemannen te zien in het straatbeeld","description":"Rondwandeling van de Bellemannen","schedule":{"stop":"20:00","limit":"50","start":"12:00"}},{"location":{"longitude":"3.7279839","latitude":"51.0580378","description":"secundair kunstintituut - speelplaats - ingang via Baudelohof, Ottogracht 4, Gent"},"type":"outdoor","title":"Elga - Het Panopticum","description":"Elga – Het Panopticum dompelt jou onder in de historiek van Gent waar revolutionaire figuren het voortouw namen. Dit levend museum vind je op de speelplaats van het SKI palend aan het Baudelohof. Een productie in samenwerking met het Vermeylenfonds.","schedule":{"stop":"20:40","limit":"50","start":"20:00"}},{"location":{"longitude":"3.7076434","latitude":"51.0580853","description":"Toren van Babel, Bargiekaai 1, Gent"},"type":"outdoor","title":"de GVR 6+","description":"Een spannende en grappige voorstelling vol aanstekelijke muziek, zinderende spraakkronkels en betoverende beelden naar de bestseller van Roald Dahl. Regie: Fabio Van Hoorebeke, muziek: Joris Hermy, spel: Lulu Aertgeerts, Jolijn Antonissen en Jeroen Maes.","schedule":{"stop":"15:25","limit":"1000","start":"14:30"}},{"location":{"longitude":"3.7198089","latitude":"51.0593912","description":"Augustijnenklooster Sint-Stefanus, Academiestraat 1, Gent"},"type":"indoor","title":"Werkwinkel \"Hippe babyschoentjes maken\"","description":"We leren jou de basis van het natvilten. Uit een zelfgevilte lap maken we een paar originele babyschoentjes.","schedule":{"stop":"17:00","limit":"50","start":"14:00"}},{"location":{"longitude":"3.7270658","latitude":"51.048845","description":"Minardschouwburg, Walpoortstraat 15, Gent"},"type":"outdoor","title":"Iets om van te huilen","description":"Debbie Crommelinck  (\"Amika\") & Bert Verbeke (\"Thuis\") spelen de hoofdrollen in een toneelstuk van de hand van Jibbe Willems. De regie is in handen van Frans Hendrickx.","schedule":{"stop":"23:15","limit":"50","start":"22:00"}},{"location":{"longitude":"3.72","latitude":"51.05665","description":"Refter van de Sint-Baafsabdij, Gandastraat zn, Gent"},"type":"outdoor","title":"Lorenzo Gatto, viool & Jean-Claude Vanden Eynden, piano","description":"Mozart, Saint-Saëns, Franck","schedule":{"stop":"16:30","limit":"1000","start":"15:00"}},{"location":{"longitude":"3.7294247","latitude":"51.0676009","description":"Centrum Seleskest, Sint-Salvatorstraat 38, Gent"},"type":"indoor","title":"Weere Ne Komieke Nest op 't Seleskest","description":"Een Gentse Feesten-cabaretshow vol Gentse humor en muziek. Met: Patrick Van Damme, Christian Bellecoste, Rony Van den Bossche, Inge Vandeleene, Pat & Dave, Ritchie Paris, Ronny Marino, Rudy Callewaert","schedule":{"stop":"18:00","limit":"1000","start":"15:00"}},{"location":{"longitude":"3.7546023","latitude":"51.0410004","description":"Feldenkrais Gent, Kliniekstraat 69, Gentbrugge"},"type":"indoor","title":"Durven zingen","description":"- Je hebt zin om te zingen maar je durft niet in het bijzijn van andere mensen  - Je denkt of men zegt je dat je vals zingt  - Je zingt, maar je bent niet tevreden met je stem","schedule":{"stop":"16:30","limit":"50","start":"13:30"}},{"location":{"longitude":"3.7271842","latitude":"51.0562813","description":"Café Trefpunt, Bij Sint-Jacobs 18, Gent"},"type":"outdoor","title":"Bij de buren op bezoek!","description":"Een wandeling door de wijk Sluizeken met bezoek aan een Turkse kruidenier en bazaar. De wijk illustreert de samenlevingsopbouw met vallen en opstaan van twee culturen. In de moskee hoort u het verhaal over het beleven van de Islam door Gentse moslims.","schedule":{"stop":"17:00","limit":"50","start":"14:00"}},{"location":{"longitude":"3.7253208","latitude":"51.0545313","description":"Stadhuis, Botermarkt 1, Gent"},"type":"outdoor","title":"Rondleiding in het Stadhuis","description":"Een rondleiding langs een doolhof, een monumentale schoorsteen, historische schilderijen en een keizerlijk toilet? Dit moet het Stadhuis zijn!","schedule":{"stop":"12:00","limit":"50","start":"10:00"}},{"location":{"longitude":"3.7270658","latitude":"51.048845","description":"Minardschouwburg, Walpoortstraat 15, Gent"},"type":"indoor","title":"Iets om van te huilen","description":"Iets om van te huilen is een nieuwe tekst van de hand van Jibbe Willems. Hij schreef dit stuk voor de Gentse acteurs Bert Verbeke (bekend uit Thuis) en Debbie Crommelinck (bekend uit Amika). Een stuk over prille, ware Liefde met een bittere nasmaak.","schedule":{"stop":"23:15","limit":"1000","start":"22:00"}},{"location":{"longitude":"3.7198035","latitude":"51.052799","description":"Het Pand, Onderbergen 1, Gent"},"type":"outdoor","title":"Rondleidingen in de Etnografische Verzamelingen: Levenswijsheid en geluk! Verrassende voorwerpen uit het traditionele China","description":"Enthousiaste gidsen vertellen bijzondere verhalen over voorwerpen uit het vroegere China. Ga mee op avontuur in de rijke wereld van de Aziatische cultuur en kom in contact met de oosterse wijze van denken en leven en raak vertrouwd met hun esthetiek.","schedule":{"stop":"15:30","limit":"50","start":"14:00"}},{"location":{"longitude":"3.6297347","latitude":"51.0667128","description":"Schoolhoeve de Campagne, Gijzelstraat 14, Drongen"},"type":"outdoor","title":"Boerencafe","description":"De bezoekers kunnen genieten van een wafel met koffie of thee, of van een andere lekker fris drankje","schedule":{"stop":"18:00","limit":"1000","start":"14:00"}},{"location":{"longitude":"3.72","latitude":"51.05665","description":"S.M.A.K., Citadelpark 2, Gent"},"type":"outdoor","title":"MARCEL | Het Broodthaerskabinet","description":"S.M.A.K. vatte het plan op om de kunstwerken en archiefstukken van Marcel Broodthaers uit de collectie permanent en op een vaste plek in het museum te presenteren.  Het voorstel van architecten de vylder vinck taillieu werd geselecteerd.","schedule":{"stop":"18:00","limit":"50","start":"10:00"}},{"location":{"longitude":"3.6297347","latitude":"51.0667128","description":"Schoolhoeve de Campagne, Gijzelstraat 14, Drongen"},"type":"outdoor","title":"Rit met de koets","description":"De bezoekers kunnen met koetsen een ritje maken in de omgeving van De Campagne","schedule":{"stop":"17:30","limit":"1000","start":"14:00"}},{"location":{"longitude":"3.7226146","latitude":"51.0569531","description":"Aanlegsteiger Boat in Gent, bij Gravensteen (50m), Kraanlei , Gent"},"type":"outdoor","title":"Historische rondvaart doorheen het middeleeuwse centrum + gratis ijsje. Duur: 50 min.","description":"Gent centrum per boot. Gids aan boord. Om de 15 minuten vertrekt er een boot.","schedule":{"stop":"00:00","limit":"1000","start":"10:00"}},{"location":{"longitude":"3.6297347","latitude":"51.0667128","description":"Schoolhoeve de Campagne, Gijzelstraat 14, Drongen"},"type":"outdoor","title":"Schminken","description":"De kinderen worden omgetoverd in een of ander dier","schedule":{"stop":"17:30","limit":"1000","start":"14:00"}},{"location":{"longitude":"3.7264702","latitude":"51.0427795","description":"Onze-Lieve-Vrouw-Sint-Pieterskerk, Sint-Pietersplein 8, Gent"},"type":"outdoor","title":"Zomerse orgelklanken in zuiders jasje","description":"Concert op de late avond. Zomerse orgelklanken in een zuiders jasje. Volksmelodieën en klaviermuziek uit het oude Zuid-Europa.","schedule":{"stop":"23:00","limit":"100","start":"22:00"}},{"location":{"longitude":"3.72392","latitude":"51.05039","description":"Ingang Handelsbeurs, Kouter , Gent"},"type":"outdoor","title":"Sneukelen Deluxe","description":"Pure verwennerij! De buurt rond de Kouter vormt het mondaine decor langsheen de lekkerste zoete sneukeltjes van de stad. Afspraak op “la place m'as-tu vu” om te zien en gezien te worden. We eindigen met een drankje op een mooie locatie.","schedule":{"stop":"18:30","limit":"50","start":"16:30"}},{"location":{"longitude":"3.7389401","latitude":"51.0485796","description":"Astridpark, Ferdinand Lousbergskaai , Gent"},"type":"outdoor","title":"Kuitbeen (workshop) - WiSPER (BE) - betalend","description":"Een workshop van Isabelle Handschoenserker waarbij de deelnemers op zoek gaan naar beelden en theatrale vormen. Voor wie houdt van beweging en het absurde.","schedule":{"stop":"16:00","limit":"50","start":"14:00"}},{"location":{"longitude":"3.7036577","latitude":"51.0475162","description":"Zaal van K. Roeivereniging Sport Gent, Kanodreef 1, Gent"},