[{"location":{"longitude":"3.72","latitude":"51.05665","description":"Gravensteen, Sint-Veerleplein , Gent"},"type":"outdoor","title":"Movieguide Filips en Mathilde","description":"Het Gravensteen is een van de topmonumenten van Gent. Via de movieguide ‘Filips en Mathilde’ komt het verre en bewogen verleden van deze versterkte burcht werkelijk tot leven.","schedule":{"stop":"18:00","limit":"50","start":"09:00"}},{"location":{"longitude":"3.7178529","latitude":"51.0545335","description":"Brasserie Het Volk, Poel 7, Gent"},"type":"outdoor","title":"Café-Chantant","description":"Een mengelmoes van Gentse liedjes. Zitplaats niet verzekerd zonder ontbijt","schedule":{"stop":"13:00","limit":"50","start":"11:00"}},{"location":{"longitude":"3.7271892","latitude":"51.0555761","description":"Salon van Casa Rosa vzw, Kammerstraat 22, Gent"},"type":"outdoor","title":"Kinderopvang & knutselatelier Casa Rosa","description":"door de vrijwilligers (v/m) van Casa Rosa wordt dagelijkse kinderopvang georganiseerd, met knutsel activiteiten. Voor kleinere kinderen is er een luier ververs tafel voorzien.","schedule":{"stop":"18:00","limit":"50","start":"14:00"}},{"location":{"longitude":"3.7213135","latitude":"51.0567346","description":"Sint-Veerleplein /, Gent"},"type":"outdoor","title":"Sherlock Holmes in het Patershol (zoektocht zonder gids)","description":"Zoektocht in 1 van Gents oudste en gezelligste wijken. Aan de hand van een leidraad, vragen en raadsels leer je het Patershol beter kennen. Boekje te koop: Kunstglasramen Mestdagh, Drabstr. 2","schedule":{"stop":"00:00","limit":"50","start":"00:00"}},{"location":{"longitude":"3.7384238","latitude":"51.0537966","description":"Sint-Baafssite, Gandastraat , Gent"},"type":"outdoor","title":"The Insect Circus Museum - The Insect Circus (UK)","description":"Sir Ronald McPeak en Lady Bonnie Berkeley zijn de stichters van het Grand Travelling Insect Circus Museum. In een authentieke mahogany Bedfort komen ze ons verbazen met hun bijzonder museum van een insectencircus.","schedule":{"stop":"20:00","limit":"50","start":"15:00"}},{"location":{"longitude":"3.702715","latitude":"51.0662256","description":"Museum Dr. Guislain, Jozef Guislainstraat 43, Gent"},"type":"indoor","title":"Outsiders: kunst in de marge","description":"De werelden van kunst en waanzin hebben elkaar doorheen de geschiedenis met regelmaat geïnspireerd. Outsiderkunstenaars maken eigenzinige omzwervingen door de wereld van kunst, esthetiek en creativiteit.","schedule":{"stop":"17:00","limit":"100","start":"09:00"}},{"location":{"longitude":"3.7384238","latitude":"51.0537966","description":"Sint-Baafssite, Gandastraat , Gent"},"type":"outdoor","title":"Carrousel des moutons - D'Irque en Fien (BE)","description":"Een intieme voorstelling zonder woorden die je sprakeloos maakt voor kinderen en andere volwassenen. D'Irque en Fien nemen je mee naar wonderland waar ze je hun dromen onthullen.","schedule":{"stop":"21:30","limit":"1000","start":"20:30"}},{"location":{"longitude":"3.7227266","latitude":"51.0576395","description":"Infostand Vizit, Corduwaniersstraat 4, Gent"},"type":"outdoor","title":"Nocturne","description":"Een fikse wandeling tot aan de feeërieke St-Baafsabdij met verhalen over bijenwas, fakkeldovers, lichtekooien en de mannen die de gas doen branden. Met halte in een biercafé (drankje niet in de prijs inbegrepen)!","schedule":{"stop":"00:30","limit":"50","start":"22:00"}},{"location":{"longitude":"3.7183287","latitude":"51.0583441","description":"Theater Tinnenpot, Balkonzaal, Tinnenpotstraat 21, Gent"},"type":"indoor","title":"Speeltijd","description":"Stand-comedian Piv Huvluv speelt voor het eerst in Gent zijn splinternieuwe show. In zijn onnavolgbare stijl en met rijke fantasie neemt hij zijn publiek mee op een enthousiaste trip naar zijn 'speeltijd' met een resem hilarische anekdotes (www.xlp.be)","schedule":{"stop":"23:10","limit":"1000","start":"22:00"}},{"location":{"longitude":"3.7238837","latitude":"51.0591506","description":"Norbertijnerkapel, Kaatsspelplein , Gent"},"type":"outdoor","title":"This appearing life - Kokliko'Theatre en Zeepcompagnie (BE) - € 4","description":"Het perfecte samenzijn van twee mannen totdat er een verdwijnt. Een samenwerking tussen Kokliko'Theatre en Zeepcompagnie over het intiem delen van het leven en de ondraaglijke gedachte van het verdwijnen van de een.","schedule":{"stop":"20:50","limit":"50","start":"20:00"}},{"location":{"longitude":"3.72","latitude":"51.05665","description":"10 Days Off - Vooruit, Sint-Pietersnieuwstraat , Gent"},"type":"outdoor","title":"Zomby (UK)","description":"Compromisloze dubstep en 2step, verborgen achter een masker. Maar met een glossy kant: Zomby werd gespeeld tijdens modeshows van Prada en tijdens de tour van Lady Gaga. Animal Collective haalt hem naar All Tomorrow's Parties, 10 Days Off naar Gent.","schedule":{"stop":"05:55","limit":"5000","start":"23:00"}},{"location":{"longitude":"3.7123823","latitude":"51.0462502","description":"VIP School, Martelaarslaan 13, Gent"},"type":"outdoor","title":"Prietproat, blabla en andere ziever.","description":"Gentse feestenrevue met grappen en sketches in 't schuun Gents door de Kloaverkes met als onderwerp TAAL in al zijn vormen. De show wordt afgewisseld met liedjes van BETSY en komische goochelacts van het duo ROBINI en BALDARNY. Muziek: Marco's orkest.","schedule":{"stop":"22:45","limit":"50","start":"19:30"}},{"location":{"longitude":"3.7522483","latitude":"51.0647541","description":"vzw Polariteit, Verkortingstraat 55, Sint-Amandsberg"},"type":"indoor","title":"Feestelijk Tangosalon","description":"In Dans-en Vormingscentrum Polariteit is er een Tangosalon met mooie Tango's, Milonga's en Tangowalsen. Kan je deze dansen nog niet ? Geen nood op 26/7 organiseren we een initiatie Tango, 27/7 Milonga en op 28 juli  Tangowals. Info: www.polariteit.be","schedule":{"stop":"01:00","limit":"100","start":"21:00"}},{"location":{"longitude":"3.7251237","latitude":"51.0559253","description":"Hof Van Ryhove, Onderstraat 20, Gent"},"type":"indoor","title":"De Vijand","description":"Mefistofeles vertelt het verhaal van Faust. Vrij naar Goethe.","schedule":{"stop":"18:30","limit":"50","start":"17:30"}},{"location":{"longitude":"3.7465202","latitude":"51.0492937","description":"Wolterslaan 16, Sint-Amandsberg"},"type":"outdoor","title":"Spel XL","description":"Kinderen kunnen zich hier amuseren op een aantal reuzespellen.","schedule":{"stop":"19:00","limit":"50","start":"13:00"}},{"location":{"longitude":"3.7266397","latitude":"51.0530324","description":"St.-Baafskathedraal, Sint-Baafsplein , Gent"},"type":"outdoor","title":"Geleid bezoek  St.-Baafskathedraal","description":"rondleiding in de St.-Baafskathedraal","schedule":{"stop":"12:00","limit":"50","start":"10:30"}},{"location":{"longitude":"3.7266301","latitude":"51.055272","description":"Feestzone, Belfortstraat , Gent"},"type":"outdoor","title":"Belleman Jean-Pierre Van De Perre","description":"Belleman te zien in het straatbeeld is ter beschikking van de bevolking en feestvierders bij de rondgang van de stroppendragers.","schedule":{"stop":"20:00","limit":"50","start":"16:00"}},{"location":{"longitude":"3.7203432","latitude":"51.05538","description":"Korenlei 1, Gent"},"type":"outdoor","title":"Gent op z'n kookpunt (zoektocht zonder gids)","description":"Wat zat er vroeger in de kookpot? Waarom gebruiken we eigenlijk bestek? Hoe ontstond Gentse waterzooi?   Boekje te koop bij Kunstglasramen Mestdagh, Drabstr. 2","schedule":{"stop":"00:00","limit":"50","start":"00:00"}},{"location":{"longitude":"3.717214","latitude":"51.0595882","description":"Cultuurkapel, Sint-Antoniuskaai 10, Gent"},"type":"indoor","title":"Tès Goe Weere, Vrie Goe Weere, bij Goe Weere","description":"Shit waar, 2 uure ongeluufelijke kluuterijen, sketchen en liedjes, deur den Ambassadeur van de Gentse Leute en zijn vrienden: Petra, An Fleur en Jan De Raedt. Orkest: 5 Men Band. Gelieve nie 't hoesten aub.","schedule":{"stop":"22:30","limit":"100","start":"20:00"}},{"location":{"longitude":"3.7214225","latitude":"51.0515844","description":"Hotel d'Hane Steenhuyse, Veldstraat 55, Gent"},"type":"indoor","title":"Rondleidingen in Hotel d'Hane Steenhuyse","description":"Uitzonderlijk kan het Hotel d'Hane Steenhuyse - een 18de-eeuws stadspaleis - onder begeleiding van een gids worden bezocht.","schedule":{"stop":"18:00","limit":"100","start":"17:00"}},{"location":{"longitude":"3.7301691","latitude":"51.0498626","description":"Aquamuse (Schip), Kuiperskaai 24, Gent"},"type":"indoor","title":"SABIJN aMUZE-ert op 't WATER","description":"Sabijn brengt een totaal show waarin je haar te zien zal krijgen zoals nooit te voren.  Acterend, zingend en Swingend, dansend, schudden en beven en vooral beleven.","schedule":{"stop":"22:30","limit":"1000","start":"20:00"}},{"location":{"longitude":"3.72","latitude":"51.05665","description":"'t Kuipke, Citadelpark z/n, Gent"},"type":"outdoor","title":"MiramirO laat je vliegen - Aérosculpture (FR) - € 3 (ter plaatse)","description":"De Aéroplume komt naar Gent! Op 21 juli 2011 tonen de mannen van Aérosculpture hoe het moet. De volgende dagen mogen kinderen zelf vliegen met de zeppelin in ’t Kuipke. Gewoon komen kijken kan natuurlijk ook!","schedule":{"stop":"18:00","limit":"50","start":"14:00"}},{"location":{"longitude":"3.7151519","latitude":"51.0439708","description":"Ingang STAM, Godshuizenlaan 2, Gent"},"type":"outdoor","title":"De Bijlokesite - NIEUW!","description":"Een plek waar studenten, muzikanten en bezoekers van het STAM te vinden zijn… Binnen de muren van deze site doen we het verhaal van haar vroegere bewoners en de historische gebouwen, tot de activiteiten en architectuur van vandaag.","schedule":{"stop":"12:30","limit":"50","start":"11:00"}},{"location":{"longitude":"3.725409","latitude":"51.0547961","description":"Middeleeuwse Crypte, NH Gent Belfort Hotel, Hoogpoort 63, Gent"},"type":"indoor","title":"Vivat Vivaldi","description":"Denijs Van Killegem, Ruth Van Killegem, Guy Penson en Jona Kesteleyn brengen Antonio Vivaldi opnieuw tot leven. Denijs kruipt letterlijk onder de pruik van 'il prete rosso', commentarieert en filosofeert. De musici brengen hoogtepunten van Vivaldi.","schedule":{"stop":"18:30","limit":"100","start":"17:00"}},{"location":{"longitude":"3.72392","latitude":"51.05039","description":"Kouter, Kouter , Gent"},"type":"outdoor","title":"A Brand","description":"Podium Kouter","schedule":{"stop":"00:40","limit":"10000","start":"23:30"}},{"location":{"longitude":"3.72","latitude":"51.05665","description":"NTGent, Sint-Baafsplein 17, Gent"},"type":"outdoor","title":"Zoon","description":"Raf Walschaerts vertelt al meer dan 20 jaar sterke verhalen met Kommil Foo. Deze keer staat hij alleen op scene, in een regie van Ineke Nijssen. Voor iedereen van 9 tot 99 jaar.  www.rafwalschaerts.be","schedule":{"stop":"20:55","limit":"50","start":"19:30"}},{"location":{"longitude":"3.72","latitude":"51.05665","description":"Museum voor Schone Kunsten, Citadelpark , Gent"},"type":"outdoor","title":"AUDIOGIDSEN GRATIS - volwassenen en kinderen","description":"Audiogidsen GRATIS voor volwassenen en kinderen tijdens GF","schedule":{"stop":"18:00","limit":"50","start":"10:00"}},{"location":{"longitude":"3.72","latitude":"51.05665","description":"Zuidpark, Woodrow Wilsonplein , Gent"},"type":"outdoor","title":"Het Maeterlinck Mysterie","description":"Ludiek-poëtische, theatrale stadswandeling in de voetsporen van Nobelprijs Literatuur 1911 Maurice Maeterlinck, die in 1895 een eerste rendez-vous had in Gent met zijn grote liefde Georgette Leblanc... en met Gerard de Duivel!","schedule":{"stop":"18:00","limit":"50","start":"14:30"}},{"location":{"longitude":"3.7271842","latitude":"51.0562813","description":"Café Trefpunt, Bij Sint-Jacobs 18, Gent"},"type":"outdoor","title":"Smeltkroes van culturen","description":"Deze wandeling geeft een beeld van het multiculturele oude Gent. Gent is altijd een poort op Europa en de wereld geweest, daarvan zijn vele getuigen terug te vinden. Deze wandeling eindigt in de Orthodoxe kerk die geheel versierd is met fresco’s.","schedule":{"stop":"16:30","limit":"50","start":"14:00"}},{"location":{"longitude":"3.7223906","latitude":"51.058202","description":"Caermersklooster, Vrouwebroersstraat 6, Gent"},"type":"outdoor","title":"Provinciale Prijs voor Vormgeving 2010","description":"Tentoonstelling met werk van Erik Sijmons, Leen Depooter en het duo Luc d’Hanis & Sofie Lachaert, laureaat en genomineerden van de zevende editie van Provinciale Prijs voor Vormgeving","schedule":{"stop":"17:00","limit":"50","start":"10:00"}},{"location":{"longitude":"3.7183287","latitude":"51.0583441","description":"Tinnenpot, Tinnenpotstraat 21, Gent"},"type":"indoor","title":"Damiaan","description":"Jo Decaluwe speelt ‘Damiaan”, een zeer persoonlijke visie op deze man van inzet, geloof, moed, tegenslag, succes.","schedule":{"stop":"12:10","limit":"50","start":"11:00"}},{"location":{"longitude":"3.7384238","latitude":"51.0537966","description":"Sint-Baafssite, Gandastraat , Gent"},"type":"outdoor","title":"La ville qui respire - Rode Boom (BE) - € 6","description":"‘La ville qui respire’ is een wandelvoorstelling waarbij een gids met behulp van poëtische zoekers u de stad toont. U neemt de tijd om alledaagse dingen in een andere context te zien. Gent, door de ogen van een poëet.","schedule":{"stop":"15:15","limit":"50","start":"14:30"}},{"location":{"longitude":"3.7184626","latitude":"51.0470496","description":"Turnzaal Oefenschool Wispelberg Coupure Rechts 54, 9000 Gent, Coupure 54, Gent"},"type":"indoor","title":"Kameroad & Schoaveling; redders van het Gentse dialect ?","description":"Gent beleeft de grootste crisis sinds zijn ontstaan; het dreigt zijn taal te verliezen.Kameroad en Schoaveling kruipen in de huid van de koppige en fiere Gentenaar die strijd voert om zijn dialect te beschermen tegen allerlei invloeden..","schedule":{"stop":"22:00","limit":"50","start":"20:00"}},{"location":{"longitude":"3.7223147","latitude":"51.0559826","description":"Groentenmarkt, Gent"},"type":"outdoor","title":"Openluchtatelier/kunstmarkt","description":"Openluchtatelier met demonstaties van verschillende beeldende kunstenaars   (tekenaars,schilders,portrettekenaars,karikarturen enz.)","schedule":{"stop":"19:00","limit":"50","start":"13:00"}},{"location":{"longitude":"3.72","latitude":"51.05665","description":"Rigakaai - tegenover WEBA, Rigakaai 0375, Gent"},"type":"indoor","title":"Havenrondvaarten met het havenjacht \"Jacob van Artevelde\"","description":"Ga tijdens de Gentse Feesten mee op verkenning in de haven. We starten aan de Rigakaai en varen helemaal tot aan ArcelorMittal.  U maakt kennis met alle dokken en met alle belangrijke spelers zoals oa Volvo, Stora Enso, Bio Base Europe, enz","schedule":{"stop":"11:30","limit":"100","start":"10:00"}},{"location":{"longitude":"3.72","latitude":"51.05665","description":"Balzaal, Vooruit, Sint-Pietersnieuwstraat 23, Gent"},"type":"indoor","title":"Hotel Jarretelle","description":"De langbenige Pascale Platel verhuurt u graag een kamer voor de nacht en gluurt met u door het sleutelgat naar haar extravagante gasten. Delicieuse dames, burlesque bunnies en drinks on the rocks, welkom in onze cabareteske suite deluxe!","schedule":{"stop":"21:30","limit":"1000","start":"20:00"}},{"location":{"longitude":"3.7142364","latitude":"51.0546514","description":"Bar Oh, Hoogstraat 88, Gent"},"type":"indoor","title":"Ontbijt met Stadswandeling","description":"Elke dag een historische wandeling. info: www.dekorf.be of info@gidsenbond-gent.be","schedule":{"stop":"12:30","limit":"50","start":"08:00"}},{"location":{"longitude":"3.7287123","latitude":"51.0599955","description":"Minnemeers (NT2Gent), Minnemeers 9, Gent"},"type":"outdoor","title":"Ka-Bal: danstheater met live muziek","description":"Ka-Bal combineert live muziek met dans in telkens drie korte voorstellingen per avond, gebracht door een schare Belgische en internationale artiesten voor wie geen uitdaging te veel is.","schedule":{"stop":"21:00","limit":"50000","start":"20:00"}},{"location":{"longitude":"3.7227266","latitude":"51.0576395","description":"Infostand Vizit, Corduwaniersstraat 4, Gent"},"type":"outdoor","title":"Broodje Gent: Culinair Patershol","description":"Wil je eens iets anders dan saaie boterhammen uit je brooddoos? Laat je dan verleiden door Broodje Gent. Wij bezorgen je een originele middagpauze en nemen je twee uurtjes mee het Patershol in.","schedule":{"stop":"14:00","limit":"50","start":"12:00"}},{"location":{"longitude":"3.7204131","latitude":"51.0265253","description":"Gewezen kazerne aan de Sterre, De Pintelaan 260, Gent"},"type":"outdoor","title":"Lezing 'Tussen tuinwijk en hoogbouw. Architectuur tussen 1950 en 1975 in Gent.' Door Miguel De Clercq.","description":"Na WO II was er nood aan sociale woningen, appartementen, kantoren en hier en daar een nieuwe kerk. De architectuur zorgt vaak voor een enorm contrast met de omliggende gebouwen en pleinen. De appreciatie varieert al evenzeer...","schedule":{"stop":"12:00","limit":"100","start":"10:00"}},{"location":{"longitude":"3.7282741","latitude":"51.0560619","description":"Charlatan, Vlasmarkt 6, Gent"},"type":"outdoor","title":"King Dalton","description":"Café - gratis: Zalige Zondag Resident - Pornopowerblues door leden van o.a. Aedo en Think Of One","schedule":{"stop":"22:00","limit":"50","start":"21:00"}},{"location":{"longitude":"3.7254561","latitude":"51.0536709","description":"Belfort, Sint-Baafsplein , Gent"},"type":"outdoor","title":"Kleurwedstrijd","description":"Doorlopend kleurwedstrijd voor de kinderen; tekeningen, papier en wasco's liggen ter beschikking. De winnaars krijgen persoonlijk een brief van de slotenmaker...","schedule":{"stop":"18:00","limit":"50","start":"10:00"}},{"location":{"longitude":"3.7238516","latitude":"51.053485","description":"Zodiac, Heilige-Geeststraat 3, Gent"},"type":"indoor","title":"Eurovision @ The Zodiac!","description":"DJ Onasis: From Dana international to “Je ne sais quoi”!! Eurosong-hits all night long! Dress-code: stijlvol erover","schedule":{"stop":"05:00","limit":"1000","start":"23:00"}},{"location":{"longitude":"3.72392","latitude":"51.05039","description":"Kouter, Kouter , Gent"},"type":"outdoor","title":"Broken Glass Heroes","description":"Podium Kouter","schedule":{"stop":"21:00","limit":"10000","start":"20:00"}},{"location":{"longitude":"3.724129","latitude":"51.036375","description":"Plantentuin Universiteit Gent, Karel Lodewijk Ledeganckstraat , Gent"},"type":"indoor","title":"Op uw gezondheid! Over bier, wijn, gedistilleerde en andere alcoholische brouwsels","description":"Talloze planten vormen het verbazingwekkend rijke erfgoed van een al even fascinerende diversiteit aan alcoholische dranken. De wandeling voert ons langs hoofd- en bijrolspelers in het scheppingsverhaal van de aardse godennectars. (H. Van Crombrugge)","schedule":{"stop":"16:00","limit":"50","start":"14:30"}},{"location":{"longitude":"3.7287123","latitude":"51.0599955","description":"MIAT, Minnemeers 9, Gent"},"type":"outdoor","title":"Expo Matchbox on tour","description":"Matchbox is een tentoonstellingsproject op wielen, in de tuin van het MIAT. De Nederlandse Conny Kuilboer en de Russische Nina Stoupina zullen samenwerken. Met feestelijke opening op zondagmiddag 17 juli.","schedule":{"stop":"17:00","limit":"50","start":"14:00"}},{"location":{"longitude":"3.7279839","latitude":"51.0580378","description":"secundair kunstintituut - speelplaats - ingang via Baudelohof, Ottogracht 4, Gent"},"type":"outdoor","title":"Elga - Het Panopticum","description":"Elga – Het Panopticum dompelt jou onder in de historiek van Gent waar revolutionaire figuren het voortouw namen. Dit levend museum vind je op de speelplaats van het SKI palend aan het Baudelohof. Een productie in samenwerking met het Vermeylenfonds.","schedule":{"stop":"18:40","limit":"50","start":"18:00"}},{"location":{"longitude":"3.7189457","latitude":"51.0584957","description":"Lievekaai /, Gent"},"type":"outdoor","title":"Over blauw bloed en witte billenbijters - zoektocht in het Prinsenhof (zonder gids)","description":"Prinsenhof: meer dan het oord van verdoemenis waar de Gentenaars stroppendragers werden. Een duik in de geschiedenis van deze mooie wijk! Boekje te koop: Kunstglasramen Mestdagh, Drabstr. 2","schedule":{"stop":"00:00","limit":"50","start":"00:00"}},{"location":{"longitude":"3.7384238","latitude":"51.0537966","description":"Sint-Baafssite, Gandastraat , Gent"},"type":"outdoor","title":"Circusworkshops + kleuterpiste - Circusplaneet (BE)","description":"Circusplaneet is ook dit jaar weer van de partij tijdens MiramirO. Heb je er altijd van gedroomd om circusartiest te worden, dan is dit je kans!","schedule":{"stop":"17:00","limit":"100","start":"15:00"}},{"location":{"longitude":"3.72392","latitude":"51.05039","description":"Kouter, Kouter , Gent"},"type":"outdoor","title":"Architecture in Helsinki (AUS.)","description":"Zaal Handelsbeurs","schedule":{"stop":"22:30","limit":"10000","start":"21:30"}},{"location":{"longitude":"3.7279839","latitude":"51.0580378","description":"secundair kunstintituut - speelplaats - ingang via Baudelohof, Ottogracht 4, Gent"},"type":"outdoor","title":"Elga - Het Panopticum","description":"Elga – Het Panopticum dompelt jou onder in de historiek van Gent waar revolutionaire figuren het voortouw namen. Dit levend museum vind je op de speelplaats van het SKI palend aan het Baudelohof. Een productie in samenwerking met het Vermeylenfonds.","schedule":{"stop":"16:40","limit":"50","start":"16:00"}},{"location":{"longitude":"3.7234722","latitude":"51.0574921","description":"Het Huis van Alijn, Kraanlei 65, Gent"},"type":"outdoor","title":"Pietjesbak met Carlos","description":"Met zijn teerlingenbak onder de parasol of paraplu verslaat Carlos sinds 1972 alle weersvoorspellingen.","schedule":{"stop":"12:00","limit":"1000","start":"10:00"}},{"location":{"longitude":"3.7264994","latitude":"51.0428007","description":"Kunsthal Sint-Pietersabdij, Sint-Pietersplein 9, Gent"},"type":"outdoor","title":"Movieguide Alison","description":"Alison is een virtueel avontuur doorheen de geschiedenis van de Gentse Sint-Pietersabdij. Dit bezoek is bijzonder geschikt voor gezinnen met kinderen. Mysterieus, raadselachtig, verrassend. Een onalledaags cultuurhistorisch avontuur.","schedule":{"stop":"18:00","limit":"50","start":"10:00"}},{"location":{"longitude":"3.7171458","latitude":"51.0499958","description":"Jan Van Gent, Annonciadenstraat 1, Gent"},"type":"indoor","title":"A World of Comedy","description":"Gentse Feesten zonder Comedy? Onmogelijk!  Ook dit jaar staat een mix van jong en ervaren comedy talenten klaar om op uw lachspieren te werken.  Vier ongewone humoristen met jarenlange ervaring in de comedyscène, improvisatietheater, het cabaret.","schedule":{"stop":"00:00","limit":"50","start":"22:30"}},{"location":{"longitude":"3.7384238","latitude":"51.0537966","description":"Sint-Baafssite, Gandastraat , Gent"},"type":"outdoor","title":"La ville qui respire - Rode Boom (BE) - € 6","description":"‘La ville qui respire’ is een wandelvoorstelling waarbij een gids met behulp van poëtische zoekers u de stad toont. U neemt de tijd om alledaagse dingen in een andere context te zien. Gent, door de ogen van een poëet.","schedule":{"stop":"19:45","limit":"50","start":"19:00"}},{"location":{"longitude":"3.72","latitude":"51.05665","description":"Zuidpark, Woodrow Wilsonplein , Gent"},"type":"outdoor","title":"De Geheimen van Gent","description":"Los jij solo, in duo of met je team van detectives de moord op Brocante Julos op, die alles te maken heeft met ‘de geheimen van Gent’? De winnaar van dit stadsspel-moordspel zal beloond worden met het teruggevonden paneel de Rechtvaardige Rechters!","schedule":{"stop":"19:00","limit":"50","start":"14:00"}},{"location":{"longitude":"3.7195404","latitude":"51.0574957","description":"NTGent Arca, Sint-Widostraat 4, Gent"},"type":"outdoor","title":"het GEITfestival & U DIKKE MA! - een voetbalopera","description":"Het GEITfestival loopt van 22–25/07 Het GEIT sprak vriend en vijand aan om hun artistiek ei tijdens de GF te leggen Het wordt een staal van wat er in het theaterlandschap opborrelt Elke avond wordt afgesloten met U DIKKE MA! –een voetbalopera","schedule":{"stop":"23:00","limit":"100","start":"19:00"}},{"location":{"longitude":"3.72","latitude":"51.05665","description":"THEATERZAAL Kunstencentrum Vooruit, Sint-Pietersnieuwstraat 23, Gent"},"type":"outdoor","title":"Maanziek","description":"Wouter Deprez, Wannes Cappelle en Frans Grapperhaus berichten in  deze voorstelling Maanziek over de kleine dingen des levens. Geen theater, geen comedy, geen muziekoptreden, het is helemaal Wannes, Frans en Wouter.","schedule":{"stop":"22:00","limit":"50","start":"20:00"}},{"location":{"longitude":"3.7181378","latitude":"51.0550817","description":"Poel 17, Drabstraat 42, Gent"},"type":"indoor","title":"Kunsttentoonstelling","description":"gedurende de GF wordt er doorlopend kunst tentoongesteld.","schedule":{"stop":"23:00","limit":"100","start":"14:00"}},{"location":{"longitude":"3.7253208","latitude":"51.0545313","description":"Stadhuis, Botermarkt 1, Gent"},"type":"outdoor","title":"Stadhuis van Gent","description":"Geleid bezoek aan het Stadhuis met aandacht voor Rechtspraak en Gerechtigheid. In samenwerking met de Dienst Monumentenzorg en Architectuur. Inschrijven niet nodig.","schedule":{"stop":"17:25","limit":"50","start":"16:30"}},{"location":{"longitude":"3.72","latitude":"51.05665","description":"Botermarkt, afspraak aan de trappen voor het stadhuis, Botermarkt z/n, Gent"},"type":"outdoor","title":" “Mee smoak”: Ecologisch-culinaire wandeling door het stadscentrum met een knipoog naar de Wereld","description":"Gent is multicultureel en dat beleef je op deze wandeling.  Streekeigen of exotische hapjes, geserveerd met een sappig verhaal en een link naar natuur, cultuur of duurzame ontwikkeling loodsen je doorheen het centrum","schedule":{"stop":"16:30","limit":"50","start":"14:00"}},{"location":{"longitude":"3.7226146","latitude":"51.0569531","description":"Aanlegsteiger Boat in Gent, bij Gravensteen (50m), Kraanlei , Gent"},"type":"outdoor","title":"De Piratenboot + gratis ijsje. Duur 40 min.","description":"Maat Piraat springt aan boord want boeven zitten hem op de hielen. We gaan per boot op zoek naar een geheime schat en hij vertelt onderweg geweldige verhalen over zijn wedervaren om zijn droom te vervullen...","schedule":{"stop":"17:40","limit":"1000","start":"17:00"}},{"location":{"longitude":"3.7254561","latitude":"51.0536709","description":"Belfort, Sint-Baafsplein , Gent"},"type":"outdoor","title":"Bezoek belfort","description":"Gent al eens van bovenaf bekeken? Zeker doen tijdens de Gentse Feesten!","schedule":{"stop":"18:00","limit":"50","start":"10:00"}},{"location":{"longitude":"3.7226146","latitude":"51.0569531","description":"Aanlegsteiger Boat in Gent, bij Gravensteen (50m), Kraanlei , Gent"},"type":"outdoor","title":"Boottocht met Hanneke Tanneke Toverheks + gratis ijsje. Duur 40 min.","description":"Vaar mee met Hanneke Tanneke: een lelijke, vrolijke, superslordige heks die de Gentse wateren tijdens de Feesten onveilig maakt. Kleuters en kinderen tot 8 jaar helpen Hanneke om een heel speciale toverdrank te brouwen.","schedule":{"stop":"16:40","limit":"1000","start":"16:00"}},{"location":{"longitude":"3.7319393","latitude":"51.0480347","description":"CAPITOLE GENT, Graaf van Vlaanderenplein 5, Gent"},"type":"indoor","title":"Hans Teeuwen - Spiksplinter","description":"Hans Teeuwen is terug! Nadat hij in 2004 voor het laatst als cabaretier op het podium stond met \"Industry of Love\", is Hans terug met zijn fonkelnieuwe cabaretvoorstelling \"Spiksplinter\".","schedule":{"stop":"21:30","limit":"5000","start":"20:00"}},{"location":{"longitude":"3.7226146","latitude":"51.0569531","description":"Aanmeerplaats :, Kraanlei , Gent"},"type":"indoor","title":"Bezoek aan De Gentse Barge","description":"De Gentse barge kan vrij bezocht worden vanaf 15u00 tot middernacht.  Bovendek: bar + aperitiefconcerten in de vooravond  Benedendek: tafelen met Foodsie vanaf 18u00 tot 23u00, reservatie aan te raden.'s Middags enkel voor groepen en op reservatie.","schedule":{"stop":"23:00","limit":"100","start":"15:00"}},{"location":{"longitude":"3.7287123","latitude":"51.0599955","description":"MIAT, Minnemeers 9, Gent"},"type":"outdoor","title":"Expo 'Ons industrieel verleden'","description":"Duik 250 jaar terug in de tijd. Vergeet alle technologische toepassingen, zoals gsm, computer en ipod. Je belandt in de 18e eeuw en komt vervolgens in de periode van de 1e industriële revolutie met de opkomst van de machine.","schedule":{"stop":"18:00","limit":"100","start":"10:00"}},{"location":{"longitude":"3.7384238","latitude":"51.0537966","description":"Sint-Baafssite, Gandastraat , Gent"},"type":"outdoor","title":"La ville qui respire - Rode Boom (BE) - € 6","description":"‘La ville qui respire’ is een wandelvoorstelling waarbij een gids met behulp van poëtische zoekers u de stad toont. U neemt de tijd om alledaagse dingen in een andere context te zien. Gent, door de ogen van een poëet.","schedule":{"stop":"19:00","limit":"50","start":"18:15"}},{"location":{"longitude":"3.7253208","latitude":"51.0545313","description":"Stadhuis, Botermarkt 1, Gent"},"type":"outdoor","title":"'Rechtspraak en gerechtigheid.' Themarondleiding in het Stadhuis.","description":"In het stadhuis werd vroeger recht gesproken. Opvallend is het labyrint in de Pacificatiezaal. Die banmijl kon een aantal keren worden afgelegd als straf voor sommige overtreders van de wet.","schedule":{"stop":"15:15","limit":"50","start":"14:30"}},{"location":{"longitude":"3.7171145","latitude":"51.0555274","description":"School van Toen, Klein Raamhof 8, Gent"},"type":"outdoor","title":"Tentoonstelling : \" Spiegeltje spiegeltje aan de wand...\"","description":"Een tentoonstelling waarbij we teruggaan naar het jaar 1925.Een presentatie uit de collectie van handgemaakte kleren en fantastische hoeden van Vivien Delbaere.","schedule":{"stop":"17:00","limit":"50","start":"14:00"}},{"location":{"longitude":"3.72","latitude":"51.05665","description":"AC Zuid, Woodrow Wilsonplein 1, Gent"},"type":"outdoor","title":"Assistentie voor personen met een handicap","description":"Gedurende de volledige periode van de Gentse Feesten is er de mogelijkheid om een gratis assistent te vragen om personen met een handicap te begeleiden om zo de Gentse Feesten te kunnen bezoeken. Dit jaar wordt de assistentie uitgevoerd door vzw Intro.","schedule":{"stop":"23:00","limit":"100","start":"14:00"}},{"location":{"longitude":"3.7188169","latitude":"51.0566275","description":"DVC veilinghuis, Burgstraat 20/22, Gent"},"type":"indoor","title":"Ienmoal, andermoal…ADZJUZEE!","description":"Luk De Bruyker kruipt in de huid van de verkoper van het veilinghuis DVC om het erfgoed van Theater Taptoe te verkopen… maar lukt hem dat wel? In deze productie wordt hij opnieuw Romain Deconinck, Scrooge, Saint Exupéry en komen heelwat poppen tot leven.","schedule":{"stop":"20:15","limit":"100","start":"19:00"}},{"location":{"longitude":"3.723231","latitude":"51.0546855","description":"Bretoens Pannenkoekenhuis Gwenola, Donkersteeg 16, Gent"},"type":"indoor","title":"Café Cantant, Willy Bart en zijne kluts","description":"Nen hutsepot van Gentsche liedjes, Een Bretoens menu: Aperitief, boekweitkoek of pannenkoek en koffie.   Ook reservatie mogelijk in Donkersteeg 16 op maandag, dinsdag en donderdag","schedule":{"stop":"14:30","limit":"100","start":"11:30"}},{"location":{"longitude":"3.7209076","latitude":"51.0534952","description":"Sint Michielsbrug, Predikherenlei 2, Gent"},"type":"outdoor","title":"Romantic Paddling","description":"Romantische rondvaart in de oude Gentse binnenstad met een Canadese kano, al dan niet voorzien van een bubbeltje.  Voor mensen met een sportieve ingesteldheid en zin voor avontuur en cultuur.","schedule":{"stop":"19:00","limit":"50","start":"10:00"}},{"location":{"longitude":"3.7226146","latitude":"51.0569531","description":"Aanmeerplaats :, Kraanlei , Gent"},"type":"indoor","title":"Leendert","description":"Nederlandstalige folk, kleinkunst - Solo (NL)","schedule":{"stop":"19:00","limit":"100","start":"18:00"}},{"location":{"longitude":"3.7270706","latitude":"51.0564691","description":"Kerk Sint Jacobs, ingang kant Rommelmarkt, Bij Sint-Jacobs -, Gent"},"type":"outdoor","title":"St. Jacobskerk","description":"De 4de grote Kerk van de Gentsche Kuip is de St Jacobskerk, vertrekpunt voor de bedevaarders naar Compostella. De sacramentenstoren, de grafmonumenten, de straalkapellen o.a. van de Trinitariërs of Slavenvrijkopers maken van deze kerk een geheel.","schedule":{"stop":"11:30","limit":"50","start":"10:00"}},{"location":{"longitude":"3.7178529","latitude":"51.0545335","description":"Brasserie Het Volk, Poel 7, Gent"},"type":"outdoor","title":"Ontbijt","description":"Uitgebreid ontbijtbuffet (verse koeken, broodjes, omeletten, spek, fruitsap, koffie, thee enz...) Reservatie bevestigd bij betaling en afhaling kaarten. Zitplaatsen verzekerd !","schedule":{"stop":"10:15","limit":"50","start":"09:00"}},{"location":{"longitude":"3.7287123","latitude":"51.0599955","description":"MIAT, Minnemeers 9, Gent"},"type":"outdoor","title":"Expo Phet Cheng Suor 'Poëtische sculpturen/Vestiaire poétique'","description":"Phet Cheng Suor ontwerpt kleding. Zijn inspireerde zich in het MIAT door portretten van arbeiders, de levendigheid van het museum en de verftuin. Rondleiding door de kunstenares op 21 en 23 juli, 14 en 15.30 uur. Met reservatie.","schedule":{"stop":"18:00","limit":"1000","start":"10:00"}},{"location":{"longitude":"3.7317448","latitude":"51.0597941","description":"Kom-Pas, Blekerijstraat 55, Gent"},"type":"indoor","title":"Joker Comedy Night","description":"De beste comedyclub van het land zakt af naar de Feesten en doet dat met méér dan één ronkende naam: Wim Helsen en Xander de Rycke zijn er iedere keer bij en kleppers zoals Nigel Williams, Henk Rijckaert, Bert Gabriëls en Jeroen Leenders wisselen af.","schedule":{"stop":"22:30","limit":"100","start":"20:30"}},{"location":{"longitude":"3.7198035","latitude":"51.052799","description":"Het Pand, Onderbergen 1, Gent"},"type":"outdoor","title":"Camiel van Breedam, een modern kunstenaar op bezoek in de Etnografische Verzamelingen","description":"De kunstenaar Camiel van Breedam laat zich inspireren door etnografische objecten. Kom een poëtisch deeltje van zijn oeuvre ontdekken en deel zijn verwondering. Wilt u meer weten over deze intrigerende dialoog tussen voorwerpen, vraag het gerust!","schedule":{"stop":"17:00","limit":"50","start":"11:00"}},{"location":{"longitude":"3.72","latitude":"51.05665","description":"S.M.A.K., Citadelpark 2, Gent"},"type":"outdoor","title":"Carlos Rodriguez-Méndez | Agua Caliente/Hot Water","description":"De Spaanse kunstenaar Carlos Rodríguez-Méndez plaatst een reusachtige minimale sculptuur in de Kunst Nu-ruimte van S.M.A.K.","schedule":{"stop":"18:00","limit":"50","start":"10:00"}},{"location":{"longitude":"3.7234722","latitude":"51.0574921","description":"Het Huis van Alijn, Kraanlei 65, Gent"},"type":"outdoor","title":"Gast-expo: Tradities in Vlaanderen","description":"Ontdek de foto’s van Nick Hannes over feestcultuur in Vlaanderen aan het begin van de 21ste eeuw: van carnavalsfeesten, suiker- en offerfeesten, autowijdingen en kermiskoersen tot babyborrels en Driekoningenzingen. (ism Volkskunde Vlaanderen vzw)","schedule":{"stop":"18:00","limit":"1000","start":"10:00"}},{"location":{"longitude":"3.7384238","latitude":"51.0537966","description":"Sint-Baafssite, Gandastraat , Gent"},"type":"outdoor","title":"La ville qui respire - Rode Boom (BE) - € 6","description":"‘La ville qui respire’ is een wandelvoorstelling waarbij een gids met behulp van poëtische zoekers u de stad toont. U neemt de tijd om alledaagse dingen in een andere context te zien. Gent, door de ogen van een poëet.","schedule":{"stop":"16:15","limit":"50","start":"15:30"}},{"location":{"longitude":"3.7384238","latitude":"51.0537966","description":"Sint-Baafssite, Gandastraat , Gent"},"type":"outdoor","title":"800 jaar arm en rijk in de Machariuswijk - Buren van de Abdij (BE) - € 2","description":"Tijdens de wandeling vertelt John Vandaele, een welingelichte buurtbewoner, over de rijke geschiedenis van de Machariuswijk, de 'meest vervelde' buurt van Gent.","schedule":{"stop":"17:30","limit":"50","start":"16:00"}},{"location":{"longitude":"3.7270658","latitude":"51.048845","description":"Minardschouwburg, Walpoortstraat 15, Gent"},"type":"outdoor","title":"De Mannen","description":"Het sluitstuk van de trilogie ‘de Soprano’s van Ledeberg'","schedule":{"stop":"21:30","limit":"50","start":"20:00"}},{"location":{"longitude":"3.7319393","latitude":"51.0480347","description":"Capitole - kleine zaal, Graaf van Vlaanderenplein 5, Gent"},"type":"outdoor","title":"Dag                                       Figurentheater voor kleuters","description":"Zoveel saaie dagen? Waarom is het niet elke dag mijn verjaardag,Pasen of Nieuwjaar? Titiana ontmoet Dageraad en ze beslissen om van elke dag een \"superdag \" te maken!(drankje incl.)  Tekst;Lien Maes  Regie:Hilde Heÿnen en Alain Pringels","schedule":{"stop":"14:45","limit":"50","start":"14:00"}},{"location":{"longitude":"3.7217767","latitude":"51.0534682","description":"Tijuana, Schuurkenstraat 2, Gent"},"type":"indoor","title":"Dancer","description":"DANCER is a \"less is more\" alternative Les Bi Gay & Straight minded party.","schedule":{"stop":"00:00","limit":"1000","start":"22:00"}},{"location":{"longitude":"3.7289473","latitude":"51.0518832","description":"zaal De Schryver (Sint Bavo, op wandelafstand van de Groene zaal), Reep 4, Gent"},"type":"indoor","title":"Het Dorp","description":"Vrolijke, intieme en ontroerende show met Nederlandse cabaretliedjes: Op een Mooie Pinksterdag, Het Dorp, Twee Motten, Kleine Johanna. De regisseur van \"Pauline & Paulette\" is eindelijk zwanger! Inclusief hommage aan Ann Petersen.","schedule":{"stop":"22:20","limit":"100","start":"20:00"}},{"location":{"longitude":"3.7183287","latitude":"51.0583441","description":"Tinnenpot, Tinnenpotstraat 21, Gent"},"type":"outdoor","title":"Joelia!","description":"Asjemenu speelt 'Joelia!' rond het verhaal van Romeo en Julia, bewerkt naar kinderen vanaf 4 jaar. Joelia! is een interactieve voorstelling, na 40 minuten theater- en poppenspel worden de kinderen uitgenodigd om mee te spelen.","schedule":{"stop":"15:40","limit":"50","start":"15:00"}},{"location":{"longitude":"3.7533519","latitude":"51.0524071","description":"Theater SCALA, Dendermondsesteenweg 163-165, Gent"},"type":"indoor","title":"Mijn Ferme Lady","description":"Muzikale komedie van Romain Deconinck, in regie van Geert Callebaut. Met o.a. Betty Bouckaert, Manon Soberon, Alain Devos, Lia De Cuyper, Guido Van den Berghe, Patrick Pevenage, Johan Van Hoorde, Steffi Ramont, Marc De Bruycker, Marc Scheire. Première 14 juli om 20u","schedule":{"stop":"23:30","limit":"5000","start":"21:00"}},{"location":{"longitude":"3.7384238","latitude":"51.0537966","description":"Sint-Baafssite, Gandastraat , Gent"},"type":"outdoor","title":"La ville qui respire - Rode Boom (BE) - € 6","description":"‘La ville qui respire’ is een wandelvoorstelling waarbij een gids met behulp van poëtische zoekers u de stad toont. U neemt de tijd om alledaagse dingen in een andere context te zien. Gent, door de ogen van een poëet.","schedule":{"stop":"16:45","limit":"50","start":"16:00"}},{"location":{"longitude":"3.72","latitude":"51.05665","description":"Rigakaai - tegenover WEBA, Rigakaai 0375, Gent"},"type":"indoor","title":"Havenrondvaarten met het havenjacht \"Jacob van Artevelde\"","description":"Ga tijdens de Gentse Feesten mee op verkenning in de haven. We starten aan de Rigakaai en varen helemaal tot aan ArcelorMittal.  U maakt kennis met alle dokken en met alle belangrijke spelers zoals oa Volvo, Stora Enso, Bio Base Europe, enz","schedule":{"stop":"18:00","limit":"100","start":"16:30"}},{"location":{"longitude":"3.7251237","latitude":"51.0559253","description":"Hof Van Ryhove, Onderstraat 20, Gent"},"type":"indoor","title":"All-English Comedy Night","description":"Voor het vijfde jaar op rij, de enige show op de Feesten met toppers uit het Amerikaans en Brits stand-up-circuit. Dit jaar o.a met headliner Hari Kondabolu (Comedy Central, Jimmy Kimmel Live...) uit Amerika!","schedule":{"stop":"23:30","limit":"100","start":"22:00"}},{"location":{"longitude":"3.7131195","latitude":"51.0788791","description":"de kring, Sint-Godelievestraat 59, Wondelgem"},"type":"indoor","title":"Travestieshow Feerie au paradis","description":"Travestieshow maar op zijn parijse wijze met pluimen strass pailletten .Met prachtige  kostuums zoals in de moulin rouge,glamour numers,comische acts,prachtig   decor,sfeervolle zaal.En dit jaar md zaza en haar dancers erbij!","schedule":{"stop":"23:30","limit":"100","start":"20:30"}},{"location":{"longitude":"3.7242079","latitude":"51.0542133","description":"Lazy River Jazz Club vzw, Stadhuissteeg 5, Gent"},"type":"indoor","title":"The New Planet Jazzband (B)","description":"Oude stijl Jazz","schedule":{"stop":"01:00","limit":"1000","start":"20:00"}},{"location":{"longitude":"3.724129","latitude":"51.036375","description":"Plantentuin van de Universiteit Gent, Karel Lodewijk Ledeganckstraat 35, Gent"},"type":"outdoor","title":"Ginds, tussen de netels - NTGent (BE) - € 15 - € 18","description":"Laat je meeslepen in deze hartverscheurende tragedie vol poëzie en rituelen, gedrenkt in een zuiderse vurigheid over een jonge bruid die op haar huwelijksdag ervan door gaat met haar minnaar. (De voorstelling loopt al vanaf 15 juli)","schedule":{"stop":"22:00","limit":"100","start":"20:30"}},{"location":{"longitude":"3.7183287","latitude":"51.0583441","description":"theater Tinnenpot, zaal Bonbonniere, Tinnenpotstraat 21, Gent"},"type":"indoor","title":"theatermonoloog 'Elfde Gebod' met Nicky Langley (oma Fonkel uit Mega Mindi, Thuis, Zone Stad, Aspe)","description":"‘Gij zult in mirakels geloven’ is het elfde gebod.  Aangrijpende theatermonoloog over mystieke plaatsen en figuren in Vlaanderen.  Merkwaardige ontdekkingen over mirakels, geloof en bijgeloof.","schedule":{"stop":"18:30","limit":"100","start":"17:00"}},{"location":{"longitude":"3.7287123","latitude":"51.0599955","description":"MIAT, Minnemeers 9, Gent"},"type":"outdoor","title":"Expo 'Katoenkabaal'","description":"Gent was ooit de rumoerigste van de Vlaamse textielsteden. In het MIAT zie je de evolutie van katoenplant tot afgewerkt product. Ontdek ook de vele eigenschappen van textielvezels en het hoogtechnologisch textiel.","schedule":{"stop":"18:00","limit":"100","start":"10:00"}},{"location":{"longitude":"3.7533519","latitude":"51.0524071","description":"Theater SCALA, Dendermondsesteenweg 163-165, Gent"},"type":"outdoor","title":"GATE 7 , De Musical","description":"Jongerenmusical","schedule":{"stop":"22:45","limit":"1000","start":"21:00"}},{"location":{"longitude":"3.72","latitude":"51.05665","description":"10 Days Off - Vooruit, Sint-Pietersnieuwstraat , Gent"},"type":"outdoor","title":"Hatcha (UK)","description":" Hatcha  is één van de pioniers van de Dubstep scène. Hij brengt avant-gardistische muziek met een urban toets. Zijn vernieuwing binnen het genre bestaat erin de muziek op een donkerdere, meer minimalistische manier te benaderen.","schedule":{"stop":"05:55","limit":"5000","start":"23:00"}},{"location":{"longitude":"3.719132","latitude":"51.0534201","description":"Startplaats, Sint-Michielsplein , Gent"},"type":"outdoor","title":"Wandelzoektocht Pasar Gent - Eeklo vzw","description":"De 17e editie van de Wandelzoektocht van Pasar laat je kennismaken met interessante gebouwen en bezienswaardigheden waarbij werknemers centraal staan. Kortom, een boeiende en plezante uitstap voor het ganse gezin!","schedule":{"stop":"00:00","limit":"50","start":"00:00"}},{"location":{"longitude":"3.7214225","latitude":"51.0515844","description":"Hotel d'Hane Steenhuyse, Veldstraat 55, Gent"},"type":"indoor","title":"De generaelen staet van een goede famielde in Gent","description":"Het publiek maakt enkele scènes mee uit het leven van graaf en gravin d'Hane de Steenhuyse en hun personeel in 1808.","schedule":{"stop":"12:30","limit":"50","start":"10:30"}},{"location":{"longitude":"3.7287123","latitude":"51.0599955","description":"MIAT, Minnemeers 9, Gent"},"type":"outdoor","title":"Evenement Druk onder stoom","description":"Het MIAT heeft een indrukwekkende historische drukkerij. Enthousiaste vrijwilligers werken aan de drukmachines. Geniet ook van 'drukken' in filmfragmenten uit diverse documentaires en langspeelfilms.","schedule":{"stop":"18:00","limit":"100","start":"10:00"}},{"location":{"longitude":"3.7338161","latitude":"51.0595068","description":"Sportschuur, Regattenlaan 8, Gent"},"type":"outdoor","title":"Vieze Verol Tjes - Compagnie KAiET (BE) - € 9","description":"‘Witte Peper’ is het eerste deel van Geert Hautekiet’s Trilogie van de Vieze Verol Tjes. Een meesterlijke eenmansshow van muzikale vertellingen rond vieze verhaaltjes.","schedule":{"stop":"22:00","limit":"50","start":"20:30"}},{"location":{"longitude":"3.7214225","latitude":"51.0515844","description":"Hotel d'Hane Steenhuyse, Veldstraat 55, Gent"},"type":"indoor","title":"Rondleidingen in Hotel d'Hane Steenhuyse","description":"Uitzonderlijk kan het Hotel d'Hane Steenhuyse - een 18de-eeuws stadspaleis - onder begeleiding van een gids worden bezocht.","schedule":{"stop":"16:30","limit":"100","start":"15:30"}},{"location":{"longitude":"3.7198035","latitude":"51.052799","description":"Het Pand, Onderbergen 1, Gent"},"type":"indoor","title":"'Materiële armoede en culturele rijkdom in Afrika' een boeiende ontdekking in de Etnografische Verzamelingen!","description":"In de media wordt het beeld over Afrika bepaald door het cliché van de armoede. Deze expo toont dat Afrikanen creatief zijn in het zoeken van oplossingen om materiële armoede te overstijgen.","schedule":{"stop":"17:00","limit":"50","start":"11:00"}},{"location":{"longitude":"3.7198035","latitude":"51.052799","description":"Het Pand, Onderbergen 1, Gent"},"type":"outdoor","title":"Workshops voor kinderen in de Etnografische Verzamelingen","description":"Kruip in de huid van een heuse ontdekkingsreiziger. Verken de wereld aan de hand van voorwerpen en verhalen.   Speel spelletjes van verre volkeren. Zo kom je te weten hoe kinderen zich daar amuseren en groot worden. Ouders welkom. Schrijf tijdig in!","schedule":{"stop":"12:00","limit":"50","start":"11:00"}},{"location":{"longitude":"3.7021974","latitude":"51.0648089","description":"Poezenboot, Nieuwevaart 300, Gent"},"type":"indoor","title":"Geleide bezoeken aan Vlaanderens enige drijvende dierenasiel.","description":"De Poezenboot is uniek als opvangcentrum voor gewonde en verwaarloosde poezen. Volledig gedragen door vrijwilligers. Geleide bezoeken mogelijk. Groepen + 8 pers : gelieve te reserveren !","schedule":{"stop":"18:00","limit":"50","start":"14:00"}},{"location":{"longitude":"3.7384238","latitude":"51.0537966","description":"Sint-Baafssite, Gandastraat , Gent"},"type":"outdoor","title":"La ville qui respire - Rode Boom (BE) - € 6","description":"‘La ville qui respire’ is een wandelvoorstelling waarbij een gids met behulp van poëtische zoekers u de stad toont. U neemt de tijd om alledaagse dingen in een andere context te zien. Gent, door de ogen van een poëet.","schedule":{"stop":"20:30","limit":"50","start":"19:45"}},{"location":{"longitude":"3.7287123","latitude":"51.0599955","description":"MIAT, Minnemeers 9, Gent"},"type":"outdoor","title":"Museumspel KidKastKraak","description":"Aan de hand van 3 koffers en een kast verkennen de leerlingen de expo WereldWijdWerken. Zij zijn gevuld met bezittingen van Kristel en haar grootouders. Elk voorwerp stuurt de kinderen op pad. Vanaf 6 jaar.","schedule":{"stop":"18:00","limit":"50","start":"10:00"}},{"location":{"longitude":"3.72648","latitude":"51.04269","description":"Portaal OLV Sint-Pieterskerk, Sint-Pietersplein /, Gent"},"type":"outdoor","title":"Om en bij de OLV Sint-Pieterskerk","description":"De Sint-Pieterskerk torent al eeuwen uit boven monniken, Pieterlingen, soldaten, arbeiders, foorgangers en studenten. Neem een kijkje in deze prachtige barokkerk en omgeving.","schedule":{"stop":"18:00","limit":"50","start":"16:00"}},{"location":{"longitude":"3.7142364","latitude":"51.0546514","description":"Bar Oh, Hoogstraat 88, Gent"},"type":"indoor","title":"Ontbijt met akoestische muziekale omkadering met aperitief en tapas","description":"Elke dag een andere muziekant","schedule":{"stop":"12:30","limit":"50","start":"10:30"}},{"location":{"longitude":"3.7036577","latitude":"51.0475162","description":"Zaal van K. Roeivereniging Sport Gent, Kanodreef 1, Gent"},"type":"indoor","title":"New Orleans Jazz met The Rudy Balliu  Society Serenaders","description":"Echte,zuivere New Orleans Jazz","schedule":{"stop":"00:00","limit":"100","start":"20:00"}},{"location":{"longitude":"3.6872139","latitude":"51.020809","description":"Kortrijksesteenweg /, Gent"},"type":"outdoor","title":"Zoektocht in het Miljoenenkwartier (zonder gids)","description":"Vandaag is het Miljoenenkwartier een mondaine woonwijk, net geen 100 jaar geleden was hier een Wereldtentoonstelling. Boekje te koop: Kunstglasramen Mestdagh, Drabstr. 2","schedule":{"stop":"00:00","limit":"50","start":"00:00"}},{"location":{"longitude":"3.7214225","latitude":"51.0515844","description":"Hotel d'Hane Steenhuyse, Veldstraat 55, Gent"},"type":"indoor","title":"Aan tafel met graaf Pierre Emmanuel d'Hane de Leeuwergem","description":"Het publiek beleeft een dag uit het leven van de familie d'Hane de Leeuwergem en haar personeel in 1778.","schedule":{"stop":"21:30","limit":"50","start":"19:30"}},{"location":{"longitude":"3.7382505","latitude":"51.0543133","description":"Spaanskasteelplein , Gent"},"type":"outdoor","title":"...Senza Che??? - Piano C (IT)","description":"Een dynamisch duo dat niets bezit maar in alles een mogelijkheid ziet om hun vrijheid ten volle te beleven. Hun poëzie doet je nadenken en de bizarre situaties waarin ze belanden maken je gegarandeerd aan het lachen.","schedule":{"stop":"18:55","limit":"1000","start":"18:15"}},{"location":{"longitude":"3.7667554","latitude":"51.037097","description":"Dienstcentrum Gentbrugge, Braemkasteelstraat 35, Gentbrugge"},"type":"outdoor","title":"Travestiespektakel Les femmes fatales Gentse feesten 2011","description":"unieke travestieshow met prachtige kostuums, ambiancevolle acts en komische live sketches. Onze zeer succesvolle showqueens brengen een show met een lach en een traan waarna u met een fijn gevoel naar huis keert.","schedule":{"stop":"23:30","limit":"100","start":"19:00"}},{"location":{"longitude":"3.7202583","latitude":"51.0556456","description":"Design Museum Gent, Jan Breydelstraat 5, Gent"},"type":"outdoor","title":"Tentoonstelling \"Esprit Porcelaine\"","description":"Het kunstcollectief \"Esprit Porcelaine\" blaast \"Les arts de la table\", door hun samenwerking met de porseleinfabrieken in Limoges, nieuw leven in. De ontwerpen illustreren de technische vaardigheden die nodig zijn om tot hoogstaande kwaliteit te komen.","schedule":{"stop":"18:00","limit":"1000","start":"10:00"}},{"location":{"longitude":"3.7465202","latitude":"51.0492937","description":"Wolterslaan 16, Sint-Amandsberg"},"type":"outdoor","title":"Fototentoonstelling: Gent van alle markten thuis in Malawi","description":"Een fototentoonstelling van prachtige beelden gemaakt in Malawi. Je kan op deze manier kennismaken met de projecten die vzw Kwasa Kwasa steunt in Malawi.","schedule":{"stop":"19:00","limit":"50","start":"13:00"}},{"location":{"longitude":"3.72","latitude":"51.05665","description":"Balzaal, Vooruit, Sint-Pietersnieuwstraat 23, Gent"},"type":"indoor","title":"Hotel Jarretelle","description":"De langbenige Pascale Platel verhuurt u graag een kamer voor de nacht en gluurt met u door het sleutelgat naar haar extravagante gasten. Delicieuse dames, burlesque bunnies en drinks on the rocks, welkom in onze cabareteske suite deluxe!","schedule":{"stop":"23:30","limit":"1000","start":"22:00"}},{"location":{"longitude":"3.7546023","latitude":"51.0410004","description":"Feldenkrais Gent, Kliniekstraat 69, Gentbrugge"},"type":"indoor","title":"Anders durven bewegen, voelen, denken?","description":"#NAAM?","schedule":{"stop":"12:30","limit":"50","start":"11:00"}},{"location":{"longitude":"3.7198089","latitude":"51.0593912","description":"Augustijnenklooster Sint-Stefanus, Academiestraat 1, Gent"},"type":"indoor","title":"GELEGENHEIDSRESTAURANT Augustijnenklooster","description":"Dagelijks gelegenheidsrestaurant tussen 12.00u en 15.00u ten voordele van de Afrikaprojecten van de Paters Augustijnen","schedule":{"stop":"15:00","limit":"100","start":"12:00"}},{"location":{"longitude":"3.7282741","latitude":"51.0560619","description":"Charlatan, Vlasmarkt 6, Gent"},"type":"outdoor","title":"Dj's Del Piero & L-Dopa + Howie Dunham","description":"Zaal: Stijlvolle mix van genres","schedule":{"stop":"05:55","limit":"50","start":"01:00"}},{"location":{"longitude":"3.701899","latitude":"51.0595485","description":"Centrum Reinaert, Reinaertstraat 28, Gent"},"type":"indoor","title":"Travestieshow Les Folles de Gand","description":"Travestieshow onder leiding van Miss Michelle. Glitter, glamour en humor. Sketches met Cabaret oester. Stemmenimitator Steve Ryckier. Airco in de zaal en hapjes te verkrijgen. Géén show op 17 juli","schedule":{"stop":"23:15","limit":"1000","start":"20:30"}},{"location":{"longitude":"3.7018324","latitude":"51.0581592","description":"Pierkespark Brugse Poort tussen Kringloopwinkel en Bij De Vieze Gasten, Haspelstraat 10, Gent"},"type":"outdoor","title":"mozaïek in het Pierkespark","description":"Gratis mozaïekworkshop. Paadjes en banken worden met mozaïek bekleed. Alle materialen zijn voorhanden. Ontwerp is al voorbereid door kunstenares.","schedule":{"stop":"18:00","limit":"50","start":"13:30"}},{"location":{"longitude":"3.7227266","latitude":"51.0576395","description":"Infostand Vizit, Corduwaniersstraat 4, Gent"},"type":"outdoor","title":"Fabrieken in de Stad","description":"Een duik in ons industriële verleden, van het Gravensteen door het Prinsenhof tot aan de Rabotwijk, met heel wat verrassende ontdekkingen. Onder andere ook een bezoek aan het merkwaardige museum Meerhem op de site van Sint-Jan de Deo.","schedule":{"stop":"12:30","limit":"50","start":"10:30"}},{"location":{"longitude":"3.7287123","latitude":"51.0599955","description":"MIAT, Minnemeers 9, Gent"},"type":"outdoor","title":"Matchbox on Tour","description":"Twee verschillende kunstenaars : Nina Stoupina en Conny Kuilboer onderlegt in verschillende disciplines, elk met andere etnische wortels, andere vormen van beelexpressie. De matchbox staat gestationeerd aan het MIAT. Opening matchbox 17/7 om 14.30u","schedule":{"stop":"20:00","limit":"50","start":"14:30"}},{"location":{"longitude":"3.7201238","latitude":"51.054856","description":"Aanlegsteiger De Bootjes Van Gent - Rederij Dewaele, Korenlei , Gent"},"type":"outdoor","title":"Lichtroze oortjes. Duur 1 uur","description":"Vrolijke, ontdeugende en licht erotische vertellingen uit verschillende windstreken, tot je weer aan land stapt met zeemansbenen en licht tintelende oortjes, door Veerle Ernalsteen op een varende boot.","schedule":{"stop":"22:00","limit":"1000","start":"21:00"}},{"location":{"longitude":"3.72","latitude":"51.05665","description":"10 Days Off - Vooruit, Sint-Pietersnieuwstraat , Gent"},"type":"outdoor","title":"Martyn (NL)","description":"Nederlandse geluidsschilderaar met faam. Dubstep ja, maar niet meteen de wobbelende, beukende en scheurende variant voor de kids. Post dubstep? Dubsteptechno? Martyn Music! Zijn sound is een ijkpunt voor dubsteppers die vooruit kijken.","schedule":{"stop":"05:55","limit":"5000","start":"23:00"}},{"location":{"longitude":"3.7384238","latitude":"51.0537966","description":"Sint-Baafsabdij, ingang via Groene Kerk Sint-Baafssite, Gandastraat , Gent"},"type":"outdoor","title":"Schraapzucht - Tuig (NL) - € 9","description":"Een soort van middeleeuwse machine gaat het duel aan met een vreemde man. Muziek op maat van de beweging van de machine brengt uw verbeelding op gang.","schedule":{"stop":"23:15","limit":"50","start":"22:30"}},{"location":{"longitude":"3.7271842","latitude":"51.0562813","description":"Café Trefpunt, Bij Sint-Jacobs 18, Gent"},"type":"outdoor","title":"Van paupers tot poorters","description":"In alle grote steden en in alle tijden is er armoe geweest. Ook Gent ontsnapt er niet aan. In deze wandeling leert u alles over de geschiedenis van de armoede in Gent. In Gent zijn vele relicten te vinden die herinneren aan deze strijd tegen de armoede.","schedule":{"stop":"16:30","limit":"50","start":"14:00"}},{"location":{"longitude":"3.702715","latitude":"51.0662256","description":"Museum Dr. Guislain, Jozef Guislainstraat 43, Gent"},"type":"outdoor","title":"In de marge. Belgische documentaire fotografie","description":"'In de marge' is een topselectie van 22 Belgische documentaire fotografen die zich op de een of andere manier inschrijven in deze geschiedenis en de 'andere kant' van het bestaan aan het licht brengen.","schedule":{"stop":"17:00","limit":"100","start":"09:00"}},{"location":{"longitude":"3.72076","latitude":"51.05471","description":"Aanlegsteiger Gent Watertoerist, Graslei , Gent"},"type":"outdoor","title":"Rondvaarten in de Gentse binnenstad","description":"Rondvaarten in de Gentse binnenstad - 40 minuten. Tijdens de rondvaart ontvangen de eerste 250 klanten een gratis Vedett.  Vertrek & aankomst : Graslei-Gent Watertoerist   Prijs : € 6,50 Volw / € 5,50 Gentenaar / € 3,50 kinderen (-12 jaar)","schedule":{"stop":"19:00","limit":"50","start":"11:00"}},{"location":{"longitude":"3.7278414","latitude":"51.0554501","description":"KANTL, Koningstraat 18, Gent"},"type":"indoor","title":"Mijn pappie is enkel een foto.   (Miserie, onnoemelijk veel miserie verpakt in meezingers van een onweerstaanbare lichtheid!) advies: Wouter Deprez","description":"Denkt u bij De Zangeres Zonder Naam aan suiker, plastic rozen en pathos? Zie dan hoe Frank Cools in dit heerlijk repertoire duikt: zonder ironie en recht vanuit dat grote hart van hem. Het plezierigste verdriet dat u ooit proefde! Olé!!","schedule":{"stop":"22:30","limit":"100","start":"21:30"}},{"location":{"longitude":"3.7278414","latitude":"51.0554501","description":"KANTL, Koningstraat 18, Gent"},"type":"outdoor","title":"Lukas Huisman","description":"Lukas Huisman brengt zijn eigen werk uit, een compositie-opdracht van Trefpunt, naast werk van Samuel Barber en Sorabji","schedule":{"stop":"17:00","limit":"50","start":"16:00"}},{"location":{"longitude":"3.7287123","latitude":"51.0599955","description":"MIAT, Minnemeers 9, Gent"},"type":"outdoor","title":"Expo Et Cetera","description":"Et Cetera staat voor textielkunst. Dit vrouwelijke collectief werkt met eeuwenoude technieken, zoals batikken, weven, vilten en shibori.","schedule":{"stop":"18:00","limit":"1000","start":"10:00"}},{"location":{"longitude":"3.7097361","latitude":"51.047746","description":"Restaurant Carte Blanche P-W, Martelaarslaan 321, Gent"},"type":"indoor","title":"Stadswandeling met ontbijt, lunch en een geleid bezoek aan het \"STAM\" of stadsmuseum.","description":"Hartig ontbijt + lunch in het restaurant Carte Blanche P-W en een stadswandeling olv Luth Claeys (Gidsenbond Oost-Vl.) met bezoek aan het STAM, muziekcentrum, bijlokesite met het oude hospitaal en de gebouwen Cloquet.","schedule":{"stop":"12:30","limit":"50","start":"08:30"}},{"location":{"longitude":"3.7151519","latitude":"51.0439708","description":"STAM - Stadsmuseum Gent, Godshuizenlaan 2, Gent"},"type":"outdoor","title":"Ontdek in het STAM het verhaal van Gent.","description":" Het heden, verleden en de toekomst worden langs een parcours van objecten en multimedia uit de doeken gedaan. De perfecte introductie tot Gent!","schedule":{"stop":"18:00","limit":"100","start":"10:00"}},{"location":{"longitude":"3.7382505","latitude":"51.0543133","description":"Spaanskasteelplein , Gent"},"type":"outdoor","title":"Cendres - La Chouing (FR)","description":"Twee broers die de laatste wens van hun overleden moeder in vervulling willen brengen: een geschikte echtgenote vinden. Maar zal dit lukken?","schedule":{"stop":"22:45","limit":"100","start":"22:00"}},{"location":{"longitude":"3.7264994","latitude":"51.0428007","description":"Kunsthal Sint-Pietersabdij, Sint-Pietersplein 9, Gent"},"type":"outdoor","title":"Fotografietentoonstelling Ground van Bruno Stevens","description":"Fotojournalist Bruno Stevens brengt in een 100-tal foto’s het resultaat van de ontmoetingen en gebeurtenissen van de voorbije 10  jaar in het Midden-Oosten. Deze foto’s verschenen in bvb. The Sunday Times, Newsweek, Paris-Match, etc.","schedule":{"stop":"18:00","limit":"50","start":"10:00"}},{"location":{"longitude":"3.72","latitude":"51.05665","description":"S.M.A.K., Citadelpark 2, Gent"},"type":"outdoor","title":"Tomorrow is the Question | Collectie S.M.A.K.","description":"S.M.A.K.stelt een deel van haar omvangrijke collectie tentoon.","schedule":{"stop":"18:00","limit":"50","start":"10:00"}},{"location":{"longitude":"3.7272136","latitude":"51.059811","description":"park Willem de Beersteeg, Willem de Beersteeg , Gent"},"type":"outdoor","title":"BataMatiQ","description":"These are Modern Times. Ook cirQ blijft bij de tijd. Deze zomer draait de vertierindustrie op volle toeren dankzij BataMatiQ. Automatisch amusement voor de meerwaardezoeker.","schedule":{"stop":"00:00","limit":"1000","start":"15:00"}},{"location":{"longitude":"3.7285385","latitude":"51.0557895","description":"Kinky Star, Vlasmarkt 9, Gent"},"type":"outdoor","title":"Mong Dosus","description":"Alternative / Psychedelic / Punk","schedule":{"stop":"01:00","limit":"50","start":"00:00"}},{"location":{"longitude":"3.724532","latitude":"51.055996","description":"François Laurentinstituut, Onderstraat 10, Gent"},"type":"outdoor","title":"da meen dje nie - een sappige cursus West-Vlaams","description":"West-Vlaams is de 2e taal in Gent, en veruit de grappigste. Leer uw Ieperse schoonma verstaan, uw Brugse buur of uw Oostendse mokke. Breng ze mee naar dit taalbad bij professor Declercq & haal uw West-Vlaams diploma. Leer en lach an honderd ter eure.","schedule":{"stop":"22:20","limit":"100","start":"21:00"}},{"location":{"longitude":"3.7226146","latitude":"51.0569531","description":"Aanlegsteiger Boat in Gent, bij Gravensteen (50m), Kraanlei , Gent"},"type":"outdoor","title":"Portus Ganda + Oude Dokken per boot met gratis ijsje. Duur: 1u45","description":"Met gids van Kraanlei, door sluis, via Portus Ganda, De Pauw-doorgang en Dampoort naar de Oude Dokken met zijn schitterend stadsvernieuwingsproject en terug. Voor echte kurieuzeneuzen! Tickets afhalen vanaf 1 uur vóór afvaart.","schedule":{"stop":"19:15","limit":"100","start":"17:30"}},{"location":{"longitude":"3.7152757","latitude":"51.0462666","description":"Bijlokehof, Bijlokehof 6, Gent"},"type":"outdoor","title":"de STAD, de STRATEN, de HUIZEN, de MENSEN","description":"Frank Degruyter neemt je mee voor een verrassende vertelwandeling door een stuk Gent dat bekend lijkt maar het niet echt is. Met verhalen over wonen, liefhebben en verloren lopen in Gent. Wandelen en luisteren naar het verhaal van een heerlijke stad.","schedule":{"stop":"12:30","limit":"50","start":"10:30"}},{"location":{"longitude":"3.7270706","latitude":"51.0564691","description":"Sint-Jacobskerk, Bij Sint-Jacobs , Gent"},"type":"outdoor","title":"Tentoonstelling Leo De Budt","description":"Het onbekend religieus oeuvre van striptekenaar Leo De Budt, vader van \"Thomas Pips\"","schedule":{"stop":"17:30","limit":"1000","start":"14:30"}},{"location":{"longitude":"3.7354626","latitude":"51.0520676","description":"Visart, Visserij 8, Gent"},"type":"outdoor","title":"Tentoonstelling Schilderwerk Michael Samuel Lucifer Vandorpe","description":"Expositie van abstracte landschapsschilderijen, olieverf op canvas. Een selectie schilderijen en nieuw werk van Michael Samuel Lucifer Vandorpe. In Visart, Contemporary VISions on ART. Elke feestendag opendeur van 15 uur tot 20 uur.","schedule":{"stop":"20:00","limit":"50","start":"15:00"}},{"location":{"longitude":"3.7257243","latitude":"51.0580285","description":"Edward Anseeleplein, Waaistraat -, Gent"},"type":"outdoor","title":"CONFLICTEN: Gent, de sociale strijd.","description":"In de 19de eeuw is Gent de grootste industriestad van Vlaanderen. Arbeiders vechten voor betere voorwaarden, en een menswaardig bestaan. Fabrieken verlaten het centrum en beluiken moeten wijken voor grootse stadsvernieuwingen. Rondleiding,res. niet nodig","schedule":{"stop":"16:30","limit":"50","start":"14:30"}},{"location":{"longitude":"3.72","latitude":"51.05665","description":"Botermarkt, afspraak aan de trappen voor het stadhuis, Botermarkt z/n, Gent"},"type":"outdoor","title":"Radio 2 animatie in en voor de mobiele studio (locatie : voor stadhuis, in het hart van de Gentse Feesten)","description":"loop eens langs , en ontmoet ons radio-team en hun Gentse Feesten gasten","schedule":{"stop":"22:00","limit":"50","start":"15:00"}},{"location":{"longitude":"3.7227266","latitude":"51.0576395","description":"Infostand Vizit, Corduwaniersstraat 4, Gent"},"type":"outdoor","title":"Fabrieken in de Stad","description":"Een duik in ons industriële verleden, van het Gravensteen door het Prinsenhof tot aan de Rabotwijk, met heel wat verrassende ontdekkingen. Onder andere ook een bezoek aan het merkwaardige museum Meerhem op de site van Sint-Jan de Deo.","schedule":{"stop":"12:00","limit":"50","start":"10:30"}},{"location":{"longitude":"3.7090273","latitude":"51.0690921","description":"De Kring S.I.V.I, Maïsstraat 20, Gent"},"type":"outdoor","title":"Sissie Parker With Dance Team: Trip Around The World (Travestie Revue)","description":"Nieuwe travestie revue, Trip Around The World. Wij nemen U mee rond de wereld met een dance team en 3 travestie's, vol glitter, dans, en showkostuum's. Een 2 uur durend spektakel. Zaal voorzien van airco en gratis parking.","schedule":{"stop":"23:00","limit":"100","start":"20:00"}},{"location":{"longitude":"3.7251237","latitude":"51.0559253","description":"Hof Van Ryhove, Onderstraat 20, Gent"},"type":"indoor","title":"Steven Mahieu - Mahieustueus","description":"Het meest bejubelde comedydebuut van het jaar is één keer te zien op deze Gentse Feesten. Steven Mahieu won dit jaar jury- én publieksprijs van Humorologie en de Standaard schreef “Met Mahieu dient zich een nieuwe topper aan!”.","schedule":{"stop":"21:30","limit":"100","start":"20:00"}},{"location":{"longitude":"3.7254561","latitude":"51.0536709","description":"Belfort, Sint-Baafsplein , Gent"},"type":"outdoor","title":"Belfort - Vertelfort","description":"Tussen de stoffige stenen en de balorige bellen van het Belfort liggen al eeuwen verhalen op jou te wachten. Maar niet meer voor lang. Verteller Veerle Ernalsteen neemt je mee op vertelavontuur.","schedule":{"stop":"16:30","limit":"50","start":"15:00"}},{"location":{"longitude":"3.7384238","latitude":"51.0537966","description":"Sint-Baafssite, Gandastraat , Gent"},"type":"outdoor","title":"Droomtijd - LOD (BE) - € 1 (ter plaatse)","description":"'Droomtijd' is een container waar binnenin een intieme sfeer heerst. De muziek prikkelt de verbeelding en stimuleert het creëren van een eigen verhaal. Om de 10 min kan u de installatie binnengaan.","schedule":{"stop":"20:00","limit":"50","start":"16:00"}},{"location":{"longitude":"3.7384238","latitude":"51.0537966","description":"Sint-Baafssite, Gandastraat , Gent"},"type":"outdoor","title":"La ville qui respire - Rode Boom (BE) - € 6","description":"‘La ville qui respire’ is een wandelvoorstelling waarbij een gids met behulp van poëtische zoekers u de stad toont. U neemt de tijd om alledaagse dingen in een andere context te zien. Gent, door de ogen van een poëet.","schedule":{"stop":"19:15","limit":"50","start":"18:30"}},{"location":{"longitude":"3.7234722","latitude":"51.0574921","description":"Het Huis van Alijn, Kraanlei 65, Gent"},"type":"outdoor","title":"Harmonieorkest Wondelgem","description":"Harmonie","schedule":{"stop":"13:00","limit":"1000","start":"11:00"}},{"location":{"longitude":"3.7314442","latitude":"51.0514757","description":"Binnentuin Vlerickschool, Seminariestraat 10, Gent"},"type":"outdoor","title":"Het Gentse Montmartre - Vlerickschool","description":"een rustpunt in de drukte van de Gentse feesten. Een plein met een authentiek kader. U kan er rustig flaneren tussen de kunstenaars en luisteren naar Franse chansons. Genieten van optredens door zangers en goochelaar. Brunch vanaf 10h","schedule":{"stop":"23:50","limit":"50","start":"10:00"}},{"location":{"longitude":"3.724532","latitude":"51.055996","description":"François Laurentinstituut, Onderstraat 10, Gent"},"type":"outdoor","title":"België binnenste buiten - Met Elio & Bart, Monseigneurs Léonard & Laurent, Mozes & Freya, en de boxershorts van Siegfried","description":"België is een grappig land. Karel Declercq keert het binnenste buiten, en hij houdt ook een spiegel voor. Karel bespeelt gitaar, ukelele en vooral het publiek. Een sightseeing door ons land met de laatste 12 maanden in de hoofdrol.","schedule":{"stop":"20:20","limit":"100","start":"19:00"}},{"location":{"longitude":"3.72392","latitude":"51.05039","description":"Kouter, Kouter , Gent"},"type":"outdoor","title":"True Bypass","description":"Club Handelsbeurs","schedule":{"stop":"21:20","limit":"10000","start":"20:40"}},{"location":{"longitude":"3.7198035","latitude":"51.052799","description":"Het Pand, Onderbergen 1, Gent"},"type":"outdoor","title":"Speciale rondleiding ‘Achter de schermen’ in de Etnografische Verzamelingen.","description":"Hoe wordt een voorwerp een museumstuk? Komt elke gift in een vitrine? Werp eens een blik in de reserves. Pas zelf een paar witte handschoenen en betast eens een voorwerp en kom meer te weten over conservatie.   Plaatsen beperkt; reserveren verplicht!","schedule":{"stop":"12:30","limit":"50","start":"11:00"}},{"location":{"longitude":"3.7226146","latitude":"51.0569531","description":"Aanlegsteiger Boat in Gent, bij Gravensteen (50m), Kraanlei , Gent"},"type":"outdoor","title":"Portus Ganda + Oude Dokken per boot met gratis ijsje. Duur: 1u45","description":"Met gids van Kraanlei, door sluis, via Portus Ganda, De Pauw-doorgang en Dampoort naar de Oude Dokken met zijn schitterend stadsvernieuwingsproject en terug. Voor echte kurieuzeneuzen! Tickets afhalen vanaf 1 uur vóór afvaart.","schedule":{"stop":"13:15","limit":"100","start":"11:30"}},{"location":{"longitude":"3.7165371","latitude":"51.0544408","description":"Hotsy Totsy, Hoogstraat 1, Gent"},"type":"indoor","title":"Deux Indécis + Guests","description":"Ach, die franse artiesten, 't is meestal niet goed met hun gegaan, echter ook in onszelf treffen we vooral smart en wanhoop aan.","schedule":{"stop":"23:00","limit":"100","start":"21:00"}},{"location":{"longitude":"3.7169582","latitude":"51.0499472","description":"café de loge, Annonciadenstraat 5, Gent"},"type":"indoor","title":"Verhaaltjes à la carte","description":"Improvisatietheater tussen pot en pint: Stel zelf je menu samen! Een improvisatieverteller maakt er een pakkend verhaal van.","schedule":{"stop":"18:00","limit":"50","start":"16:00"}},{"location":{"longitude":"3.70568","latitude":"51.044251","description":"School De Wingerd, Neermeerskaai 1a, Gent"},"type":"indoor","title":"Den tijd van den dzoebox","description":"We nemen u mee naar de jukeboxperiode, naar de flitsende kasten gevuld met vinyl- of cd plaatjes. In een show vol humor, sketches en veel muziek brengen we u de Gentse, Vlaamse en Internationale hits vanaf 1970. Geef Buzze! Duoticket Nico Lennyshow: 20€","schedule":{"stop":"17:00","limit":"1000","start":"14:30"}},{"location":{"longitude":"3.7384238","latitude":"51.0537966","description":"Sint-Baafssite, Gandastraat , Gent"},"type":"outdoor","title":"Sens Dessus Dessous - Collectif Malunés (BE)","description":"Explosief circus van drie mannen en hun vrouw waarbij iedereen in het rond vliegt. De voorstelling neemt een spectaculaire wending na het proeven van een appel.","schedule":{"stop":"18:10","limit":"100","start":"17:30"}},{"location":{"longitude":"3.7253208","latitude":"51.0545313","description":"Stadhuis, Botermarkt 1, Gent"},"type":"outdoor","title":"'Rechtspraak en gerechtigheid.' Themarondleiding in het Stadhuis.","description":"In het stadhuis werd vroeger recht gesproken. Opvallend is het labyrint in de Pacificatiezaal. Die banmijl kon een aantal keren worden afgelegd als straf voor sommige overtreders van de wet.","schedule":{"stop":"17:15","limit":"50","start":"16:30"}},{"location":{"longitude":"3.7022031","latitude":"51.0583924","description":"Bij' De Vieze Gasten, Haspelstraat 31, Gent"},"type":"indoor","title":"Wie spreekt mijn gedachte","description":"Acteur Kasper Vandenberghe (Zuidelijk Toneel, Ontroerend Goed, Jan Fabre) bewerkte een dertig jaar oude tekst van duivel-doet-al Jan Fabre tot een fascinerend schouwspel.","schedule":{"stop":"22:00","limit":"100","start":"20:30"}},{"location":{"longitude":"3.7397069","latitude":"51.0581571","description":"DOKstrand, Koopvaardijlaan 13B, Gent"},"type":"outdoor","title":"BataStrand","description":"Batastrand, de oase van de Gentse feesten","schedule":{"stop":"00:00","limit":"50","start":"14:00"}},{"location":{"longitude":"3.7202583","latitude":"51.0556456","description":"Design Museum Gent, Jan Breydelstraat 5, Gent"},"type":"outdoor","title":"Het Museumspel","description":"Het jonge volkje ontdekt op een heel speelse en ludieke manier de collectie van het Design museum Gent. Gewapend met verrekijker, materialenketting en boekje gaan ze, samen met hun ouders, op designontdekkingstocht.","schedule":{"stop":"18:00","limit":"1000","start":"10:00"}},{"location":{"longitude":"3.7234722","latitude":"51.0574921","description":"Het Huis van Alijn, Kraanlei 65, Gent"},"type":"outdoor","title":"Het Huis van Alijn, museum van de dingen die (n)ooit voorbijgaan","description":"Hier wordt volkscultuur op een eigentijdse en verrassende manier opgevat. Open van 10 tot 18 uur tijdens de Gentse Feesten en gratis voor Gentenaars!","schedule":{"stop":"18:00","limit":"1000","start":"10:00"}},{"location":{"longitude":"3.72","latitude":"51.05665","description":"'t Kuipke, Citadelpark z/n, Gent"},"type":"outdoor","title":"MiramirO laat je vliegen - Aérosculpture (FR) - € 3 (ter plaatse)","description":"De Aéroplume komt naar Gent! Op 21 juli 2011 tonen de mannen van Aérosculpture hoe het moet. De volgende dagen mogen kinderen zelf vliegen met de zeppelin in ’t Kuipke. Gewoon komen kijken kan natuurlijk ook!","schedule":{"stop":"12:00","limit":"50","start":"10:00"}},{"location":{"longitude":"3.7226146","latitude":"51.0569531","description":"Aanlegsteiger Boat in Gent, bij Gravensteen (50m), Kraanlei , Gent"},"type":"outdoor","title":"Historische rondvaart doorheen het middeleeuwse centrum + gratis ijsje. Duur: 50 min.","description":"Gent centrum per boot. Gids aan boord. Om de 15 minuten vertrekt er een boot.","schedule":{"stop":"00:00","limit":"1000","start":"10:00"}},{"location":{"longitude":"3.72","latitude":"51.05665","description":"Botermarkt, afspraak aan de trappen voor het stadhuis, Botermarkt z/n, Gent"},"type":"outdoor","title":"Radio 2 Avondpost live (16-18)","description":"feestelijke live radio vanop en over  de Gentse Feesten met verrassende studio gasten","schedule":{"stop":"18:00","limit":"50","start":"16:00"}},{"location":{"longitude":"3.7466023","latitude":"51.0565888","description":"Begijnhofkerk Sint-Elisabeth, Groot Begijnhof 67, Sint-Amandsberg"},"type":"outdoor","title":"Diafaan V. Hedendaagse glaskunst in het Sint-Elisabethbegijnhof te Sint-Amandsberg","description":"Rondleiding in de tentoonstelling 'Diafaan V' waarbij op verschillende locaties in het begijnhof van Sint-Amandsberg, die voor de gelegenheid opengesteld zijn, glaskunstenaars hun werk tentoon stellen.","schedule":{"stop":"17:00","limit":"50","start":"15:00"}},{"location":{"longitude":"3.7334779","latitude":"51.0541863","description":"Ingang Van Eyckzwembad, Veermanplein -, Gent"},"type":"outdoor","title":"Portus Ganda - NIEUW!","description":"De Gentse jachthaven onthult de oudste geschiedenis van de stad: hier werd Gent gesticht, bij de samenvloeiing van Schelde en Leie. Parel van deze buurt is ongetwijfeld de eeuwenoude Sint-Baafsabdij.","schedule":{"stop":"12:00","limit":"50","start":"10:30"}},{"location":{"longitude":"3.7264272","latitude":"51.0569408","description":"Lakenmetershuis/Willemsfonds -Vrijdagsmarkt, Vrijdagmarkt 24-25, Gent"},"type":"indoor","title":"Vier zonder ruuk deur 't Spelleke van Dei Kluite","description":"Een nieuwe revue, veur alle  gruute kientsjes die Gent kenne en Gents verstoan mee stijte muile Pierke Pierlala in d'uuftrolle.","schedule":{"stop":"23:30","limit":"1000","start":"22:00"}},{"location":{"longitude":"3.7202583","latitude":"51.0556456","description":"Design Museum Gent, Jan Breydelstraat 5, Gent"},"type":"outdoor","title":"Tentoonstelling \"Die Essenz der Dinge\"","description":"In deze tentoonstelling staan designobjecten die \"de kunst van het reduceren\"  illustreren centraal. Vormgeving herleiden tot het essentiële is van alle tijden, maar wat betekent dit in een periode van economische crisis?","schedule":{"stop":"18:00","limit":"1000","start":"10:00"}},{"location":{"longitude":"3.7384238","latitude":"51.0537966","description":"Sint-Baafssite, Gandastraat , Gent"},"type":"outdoor","title":"La ville qui respire - Rode Boom (BE) - € 6","description":"‘La ville qui respire’ is een wandelvoorstelling waarbij een gids met behulp van poëtische zoekers u de stad toont. U neemt de tijd om alledaagse dingen in een andere context te zien. Gent, door de ogen van een poëet.","schedule":{"stop":"15:45","limit":"50","start":"15:00"}},{"location":{"longitude":"3.7465202","latitude":"51.0492937","description":"Wolterslaan 16, Sint-Amandsberg"},"type":"outdoor","title":"Grote Gentse Feesten wedstrijd","description":"Via hints die her en der op ons terrein te vinden zijn, leer je meer over de geschiedenis van Malawi en kan je meedoen aan onze grote Gentse Feesten wedstrijd.","schedule":{"stop":"19:00","limit":"50","start":"13:00"}},{"location":{"longitude":"3.7253208","latitude":"51.0545313","description":"Stadhuis, Botermarkt 1, Gent"},"type":"outdoor","title":"'Rechtspraak en gerechtigheid.' Themarondleiding in het Stadhuis.","description":"In het stadhuis werd vroeger recht gesproken. Opvallend is het labyrint in de Pacificatiezaal. Die banmijl kon een aantal keren worden afgelegd als straf voor sommige overtreders van de wet.","schedule":{"stop":"18:15","limit":"50","start":"17:30"}},{"location":{"longitude":"3.7198035","latitude":"51.052799","description":"Het Pand, Onderbergen 1, Gent"},"type":"outdoor","title":"Rondleidingen in de Etnografische Verzamelingen: Levenswijsheid en geluk! Verrassende voorwerpen uit het traditionele China","description":"Enthousiaste gidsen vertellen bijzondere verhalen over voorwerpen uit het vroegere China. Ga mee op avontuur in de rijke wereld van de Aziatische cultuur en kom in contact met de oosterse wijze van denken en leven en raak vertrouwd met hun esthetiek.","schedule":{"stop":"12:30","limit":"50","start":"11:00"}},{"location":{"longitude":"3.7169339","latitude":"51.0522058","description":"Monasterium Poortackere, Oude Houtlei 56, Gent"},"type":"indoor","title":"Expo","description":"Naast zijn muziek brengt Osama in het Monasterium visual art met oude structuren, beelden en tekst van 4000 tot 5000 jaar oud.","schedule":{"stop":"23:30","limit":"100","start":"09:00"}},{"location":{"longitude":"3.724532","latitude":"51.055996","description":"François Laurent Instituut, Onderstraat 10, Gent"},"type":"indoor","title":"ALLADIN en de WONDERLAMP, poppentheater met Pierke van Gent","description":"Poppentheater voor families met kinderen. Dit jaar wordt het Oosterse Sprookje 'Alladin en de Wonderlamp' opgevoerd, waar ook Pierke een belangrijke rol in speelt.  Het verhaal is gekend: Alladin een arme jongen wordt een Prins uit 1001 nachten.","schedule":{"stop":"16:15","limit":"1000","start":"14:30"}},{"location":{"longitude":"3.7201238","latitude":"51.054856","description":"Aanlegsteiger De Bootjes van Gent-Rederij Dewaele, Korenlei , Gent"},"type":"outdoor","title":"Portus Ganda + Oude Dokken per boot met gratis ijsje.  Duur: 1u45","description":"Met gids van Korenlei, door de sluis, via Portus Ganda en Dampoort naar de Oude Dokken met zijn schitterend stadsvernieuwingsproject en terug. Voor echte kurieuzeneuzen! Tickets afhalen vanaf 1 uur vóór afvaart.","schedule":{"stop":"19:15","limit":"1000","start":"17:30"}},{"location":{"longitude":"3.7282741","latitude":"51.0560619","description":"Charlatan, Vlasmarkt 6, Gent"},"type":"outdoor","title":"Verrassingsconcert","description":"Zaal: Try-out van HUn tweede plaat - Sexier dan Das Pop en zelfs vuiler dan Drums Are For Parades","schedule":{"stop":"23:00","limit":"50","start":"22:00"}},{"location":{"longitude":"3.7076434","latitude":"51.0580853","description":"Toren van Babel, Bargiekaai 1, Gent"},"type":"outdoor","title":"Pluk van de Petteflet 5+","description":"Een minimusicalversie van Annie M.G. Schmidt-klassieker. Regie: Fabio Van Hoorebeke, muziek: Joris Hermy, spel: Charline Catrysse, Pieter Klinck, Tijl Dauwe.","schedule":{"stop":"17:55","limit":"1000","start":"17:00"}},{"location":{"longitude":"3.7251237","latitude":"51.0559253","description":"Hof Van Ryhove, Onderstraat 20, Gent"},"type":"indoor","title":"Cartoontentoonstelling \"Selecte (Gentsche) humor\"","description":"Gentse e.a. cartoonisten stellen voor uit hun eigen werk.","schedule":{"stop":"15:00","limit":"100","start":"11:00"}},{"location":{"longitude":"3.7338082","latitude":"51.0604437","description":"Zaal Ovaki, Ham 139, Gent"},"type":"outdoor","title":"Goe Bezig!","description":"Martin zwiept zijn bezem doorheen de heetste hangijzers die ons dagelijks schaamteloos worden aangereikt. De Dalai Lama, Luc Versteylen, Roger Van Gheluwe - en verder veel ander nieuws over onze politici en over uzelf...","schedule":{"stop":"20:45","limit":"50","start":"19:30"}},{"location":{"longitude":"3.7160307","latitude":"51.0563182","description":"Galerij Nina Stoupina, Burgstraat 101, Gent"},"type":"indoor","title":"Workshop : mogelijkheden van mixed-media","description":"Workshop door Nina Stoupina, met materiale: warme was, zijdepapier, monotype met pers, acryl, olie. Prijs incl. materiaal en drank: 1 dag = 65€, 2 dagen = 100€","schedule":{"stop":"17:00","limit":"50","start":"10:00"}},{"location":{"longitude":"3.7268065","latitude":"51.0515278","description":"Provinciehuis, Gouvernementstraat 1, Gent"},"type":"indoor","title":"TAPtoe - TapTOE","description":"Een tentoonstelling van het erfgoed van het Gentse Figurentheater Taptoe. Een archiefkamer, een muziekkamer en de 10 topstukken geven een mooie inkijk in de boeiende carrière van Taptoe. Een theatrale setting met meer dan 200 poppen in het provinciehuis.","schedule":{"stop":"17:00","limit":"100","start":"10:00"}},{"location":{"longitude":"3.7498916","latitude":"51.0584416","description":"Begijnhof Sint-Amandsberg, Jan Roomsstraat , Sint-Amandsberg"},"type":"outdoor","title":"Diafaan V. Hedendaagse glaskunst in Vlaanderen","description":"'Diafaan' is een biënale tentoonstelling over hedendaagse glaskunst in Vlaanderen die voor de vijfde keer plaatsvindt in het Begijnhof van Sint-Amandsberg. In het hof worden op verschillende plaatsen, binnen en buiten, werk van kunstenaars getoond.","schedule":{"stop":"18:00","limit":"100","start":"13:00"}},{"location":{"longitude":"3.72392","latitude":"51.05039","description":"Kouter, Kouter , Gent"},"type":"outdoor","title":"Connan Mockasin (N.Z.)","description":"Zaal Handelsbeurs","schedule":{"stop":"20:30","limit":"10000","start":"19:30"}},{"location":{"longitude":"3.7294247","latitude":"51.0676009","description":"Centrum Seleskest, Sint-Salvatorstraat 38, Gent"},"type":"indoor","title":"Weere Ne Komieke Nest op 't Seleskest","description":"Een Gentse Feesten-cabaretshow vol Gentse humor en muziek. Met: Patrick Van Damme, Christian Bellecoste, Rony Van den Bossche, Inge Vandeleene, Pat & Dave, Ritchie Paris, Ronny Marino, Rudy Callewaert","schedule":{"stop":"18:00","limit":"1000","start":"15:00"}},{"location":{"longitude":"3.7271842","latitude":"51.0562813","description":"Café Trefpunt, Bij Sint-Jacobs 18, Gent"},"type":"outdoor","title":"Bij de buren op bezoek!","description":"Een wandeling door de wijk Sluizeken met bezoek aan een Turkse kruidenier en bazaar. De wijk illustreert de samenlevingsopbouw met vallen en opstaan van twee culturen. In de moskee hoort u het verhaal over het beleven van de Islam door Gentse moslims.","schedule":{"stop":"17:00","limit":"50","start":"14:00"}},{"location":{"longitude":"3.7389401","latitude":"51.0485796","description":"Astridpark, Ferdinand Lousbergskaai , Gent"},"type":"outdoor","title":"Kuitbeen (workshop) - WiSPER (BE) - betalend","description":"Een workshop van Isabelle Handschoenserker waarbij de deelnemers op zoek gaan naar beelden en theatrale vormen. Voor wie houdt van beweging en het absurde.","schedule":{"stop":"18:00","limit":"50","start":"14:00"}},{"location":{"longitude":"3.7304485","latitude":"51.0488475","description":"Yoga-on-Call, Oudescheldestraat 16, Gent"},"type":"outdoor","title":"Start-to-Yoga","description":"Kom gratis kennismaken met Yoga, de dynamische vorm!","schedule":{"stop":"18:00","limit":"50","start":"17:00"}},{"location":{"longitude":"3.7198035","latitude":"51.052799","description":"Het Pand, Onderbergen 1, Gent"},"type":"outdoor","title":"Rondleidingen in de Etnografische Verzamelingen: Levenswijsheid en geluk! Verrassende voorwerpen uit het traditionele China","description":"Enthousiaste gidsen vertellen bijzondere verhalen over voorwerpen uit het vroegere China. Ga mee op avontuur in de rijke wereld van de Aziatische cultuur en kom in contact met de oosterse wijze van denken en leven en raak vertrouwd met hun esthetiek.","schedule":{"stop":"15:30","limit":"50","start":"14:00"}},{"location":{"longitude":"3.7198035","latitude":"51.052799","description":"Het Pand, Onderbergen 1, Gent"},"type":"outdoor","title":"Tangram en andere traditionele kinderspelletjes uit China in de Etnografische Verzamelingen","description":"TANGRAM is een Chinees legspel waarbij figuren kunnen worden gevormd uit geometrische stukken. Met zo’n puzzelstuk in de hand speuren en spelen tussen de museumstukken en in de omsloten kloostertuin.   Ouders zijn welkom!","schedule":{"stop":"12:30","limit":"50","start":"11:00"}},{"location":{"longitude":"3.724129","latitude":"51.036375","description":"Plantentuin UGent, Karel Lodewijk Ledeganckstraat 35, Gent"},"type":"indoor","title":"Ginds, tussen de netels","description":"Dimitri Verhulst ontbeent Lorca's Bloedbruiloft en creërt er een totaal nieuwe voorstelling mee. Hij verplaatst de clanvete naar een denkbeeldig Belgisch dorp, 'de hoofdstad der brandnetels'.","schedule":{"stop":"16:30","limit":"100","start":"15:00"}},{"location":{"longitude":"3.7201238","latitude":"51.054856","description":"Aanlegsteiger De Bootjes van Gent-Rederij Dewaele, Korenlei , Gent"},"type":"outdoor","title":"Portus Ganda + Oude Dokken per boot met gratis ijsje.  Duur: 1u45","description":"Met gids van Korenlei, door de sluis, via Portus Ganda en Dampoort naar de Oude Dokken met zijn schitterend stadsvernieuwingsproject en terug. Voor echte kurieuzeneuzen! Tickets afhalen vanaf 1 uur vóór afvaart.","schedule":{"stop":"13:15","limit":"1000","start":"11:30"}},{"location":{"longitude":"3.7323985","latitude":"51.0596649","description":"KOPERGIETERY, Blekerijstraat 50, Gent"},"type":"indoor","title":"Het huis huilt","description":"Een speelse voorstelling rond een fascinerende droomwereld waarin 8 insecten samenwonen  in een huis. Een huis dat huilt. Op je tocht doorheen dit wonderlijke huis helpen deze bijzondere insecten je de uitgang te vinden. Kijk en luister maar...","schedule":{"stop":"16:45","limit":"1000","start":"16:00"}},{"location":{"longitude":"3.7253208","latitude":"51.0545313","description":"Stadhuis, Botermarkt 1, Gent"},"type":"outdoor","title":"Stadhuis van Gent","description":"Geleid bezoek aan het Stadhuis met aandacht voor Rechtspraak en Gerechtigheid. In samenwerking met de Dienst Monumentenzorg en Architectuur. Inschrijven niet nodig.","schedule":{"stop":"16:25","limit":"50","start":"15:30"}},{"location":{"longitude":"3.7223147","latitude":"51.0559826","description":"aan de steiger van Rederij De Gentenaer, Groentenmarkt -, Gent"},"type":"outdoor","title":"Rondvaarten in de Gentse binnenstad","description":"Rondvaarten in Gentse binnenstad 50 minuten.  Tijdens de rondvaart eerste 250 pers.: 1 gratis \"La Chouffe\" of 1 \"Liefmans on the rocks\"  Vertrek & aankomst Groentenmarkt - Rederij De Gentenaer.  Prijs: € 6,50/Volw.- € 5,50 Gentenaar-€ 3,50 Kind (-12j)","schedule":{"stop":"19:00","limit":"50","start":"11:00"}},{"location":{"longitude":"3.7271842","latitude":"51.0562813","description":"Café Trefpunt, Bij Sint-Jacobs 18, Gent"},"type":"outdoor","title":"Gent, rebelse stad!","description":"Gent heeft altijd een dwars en rebels karakter gehad; Dit uitte zich in vele opstanden en oproeren tegen externe en interne machthebbers. In deze wandeling tonen we u aan dat Gent inspiratie geweest is voor nieuwe vormen om het gezag te tarten.","schedule":{"stop":"16:00","limit":"50","start":"14:00"}},{"location":{"longitude":"3.7183287","latitude":"51.0583441","description":"Tinnenpot, Tinnenpotstraat 21, Gent"},"type":"outdoor","title":"Cabaret Best","description":"Na Cabaret één, Cabaret-wee, Cabaret-te-rie, Cabaret Fier en Cabaret de Vijfde sluiten ze hun jarenlange samenwerking af met Cabaret Best. Elk van de acteurs brengt twee van hun favoriet nummers uit de voorbije jaren. En ze zingen ook!","schedule":{"stop":"21:10","limit":"1000","start":"19:30"}},{"location":{"longitude":"3.7188169","latitude":"51.0566275","description":"DVC veilinghuis, Burgstraat 20/22, Gent"},"type":"indoor","title":"Ienmoal, andermoal…ADZJUZEE!","description":"Luk De Bruyker kruipt in de huid van de verkoper van het veilinghuis DVC om het erfgoed van Theater Taptoe te verkopen… maar lukt hem dat wel? In deze productie wordt hij opnieuw Romain Deconinck, Scrooge, Saint Exupéry en komen heelwat poppen tot leven.","schedule":{"stop":"16:15","limit":"100","start":"15:00"}},{"location":{"longitude":"3.7201238","latitude":"51.054856","description":"Korenlei /, Gent"},"type":"outdoor","title":"Gent op z'n kookpunt (zoektocht zonder gids)","description":"Wat zat er vroeger in de kookpot? Waarom gebruiken we eigenlijk bestek? Hoe ontstond Gentse waterzooi? Boekje te koop: Kunstglasramen Mestdagh, Drabstraat 2.","schedule":{"stop":"00:00","limit":"50","start":"00:00"}},{"location":{"longitude":"3.7384238","latitude":"51.0537966","description":"Sint-Baafssite, Gandastraat , Gent"},"type":"outdoor","title":"La ville qui respire - Rode Boom (BE) - € 6","description":"‘La ville qui respire’ is een wandelvoorstelling waarbij een gids met behulp van poëtische zoekers u de stad toont. U neemt de tijd om alledaagse dingen in een andere context te zien. Gent, door de ogen van een poëet.","schedule":{"stop":"15:30","limit":"50","start":"14:45"}},{"location":{"longitude":"3.7109101","latitude":"51.0371122","description":"Hoofdingang Sint-Pietersstation, Koningin Maria Hendrikaplein , Gent"},"type":"outdoor","title":"Van 't Station naar 't Park","description":"Een tochtje waarbij we 100 jaar overbruggen: als ware bezoeker van de Gentse wereldtentoonstelling leggen we het parcours af van St.-Pietersstation, langs de boeiendste paviljoenen (huidige ‘Miljoenenkwartier’), naar het Citadelpark.","schedule":{"stop":"13:00","limit":"50","start":"11:00"}},{"location":{"longitude":"3.7279839","latitude":"51.0580378","description":"Turnzaal Secundair Kunstinstituut Stad Gent, Ottogracht 4, Gent"},"type":"indoor","title":"Dacart","description":"Dacart is een tentoonstelling, georganiseerd door het dagactiviteitencentrum van Zonnehoeve|Living+. De werken die worden getoond zijn de werken, gemaakt door onze cliënten. Het gaat over beeldend werk, schilderijen, collages… Alle werken zijn te koop.","schedule":{"stop":"22:00","limit":"1000","start":"15:00"}},{"location":{"longitude":"3.7171145","latitude":"51.0555274","description":"School van Toen, Klein Raamhof 8, Gent"},"type":"outdoor","title":"Kantklossen","description":"Aan de hand van een werkmodel worden de technieken van het kantklossen getoond.","schedule":{"stop":"17:00","limit":"100","start":"14:00"}},{"location":{"longitude":"3.7465202","latitude":"51.0492937","description":"Wolterslaan 16, Sint-Amandsberg"},"type":"outdoor","title":"De ronde van Malawi","description":"Rijd zo vlug mogelijk 'de ronde van Malawi' uit op een van de speciale fietsen en spaar zo mee voor fietsen voor Malawi.","schedule":{"stop":"19:00","limit":"50","start":"13:00"}},{"location":{"longitude":"3.7270658","latitude":"51.048845","description":"Minardschouwburg, Walpoortstraat 15, Gent"},"type":"outdoor","title":"Iets om van te huilen","description":"Debbie Crommelinck  (\"Amika\") & Bert Verbeke (\"Thuis\") spelen de hoofdrollen in een toneelstuk van de hand van Jibbe Willems. De regie is in handen van Frans Hendrickx.","schedule":{"stop":"23:15","limit":"50","start":"22:00"}},{"location":{"longitude":"3.70568","latitude":"51.044251","description":"School De Wingerd, Neermeerskaai 1a, Gent"},"type":"outdoor","title":"Den tijd van den dzoebox","description":"We nemen u mee naar de jukeboxperiode, naar de flitsende kasten gevuld met vinyl- of cd plaatjes. In een show vol humor, sketches en veel muziek brengen we u de Gentse, Vlaamse en Internationale hits vanaf 1970. Geef Buzze! Duoticket Nico Lennyshow: 20€","schedule":{"stop":"22:30","limit":"1000","start":"20:00"}},{"location":{"longitude":"3.7330531","latitude":"51.0401269","description":"Zebrastraat NV, Zebrastraat 32/001, Gent"},"type":"indoor","title":"Filmvoorstelling : kortfilm De Veer van César","description":"hoofdrol Pjeroo Roobjee, gastrollen Jan Decleir, Robbe de Hert, Peter Holvoet-Hanssen","schedule":{"stop":"18:00","limit":"100","start":"14:00"}},{"location":{"longitude":"3.7287123","latitude":"51.0599955","description":"MIAT, Minnemeers 9, Gent"},"type":"outdoor","title":"Museumspel Het Blote Knieënspel","description":"Een zoektocht naar het leven van vroeger. Wat at een rijk kind? Hoe zag een bakkersoven er uit? Waar werkten de kinderen? Met een doeboekje ga je van speelkast naar speelkast. Van 6 tot 12 jaar.","schedule":{"stop":"18:00","limit":"50","start":"10:00"}},{"location":{"longitude":"3.72076","latitude":"51.05471","description":"Aanlegsteiger Gent Watertoerist, Graslei , Gent"},"type":"outdoor","title":"Theater op het water i.s.m. theater Trac - \"Ganda Historica\"","description":"De toeschouwers worden per open boot naar de acteurs gebracht.Met \"Ganda Literatura\" wordt aandacht besteed aan de Gentse schrijvers Maurice Maeterlinck, Jean Ray, Cyriel Buysse,gezusters Loveling.   Prijs : € 10,00/pers.Reservatie verplicht.","schedule":{"stop":"19:30","limit":"50","start":"18:30"}},{"location":{"longitude":"3.7231493","latitude":"51.0585945","description":"Binnenkoer Europees Figurenteatercentrum, Trommelstraat 1, Gent"},"type":"outdoor","title":"Luk Vincentprijs voor jong Talent","description":"Jong Talent, Voorstelling van beginnende figurentheaterspelers","schedule":{"stop":"15:30","limit":"1000","start":"15:00"}},{"location":{"longitude":"3.702715","latitude":"51.0662256","description":"Museum Dr. Guislain, Jozef Guislainstraat 43, Gent"},"type":"outdoor","title":"Geschiedenis van de psychiatrie","description":"Omgaan met waanzin doorheen de tijden: een mengeling van magie, religie, dwang en zorg, controle en wetenschap. Waar geen rede mee te rijmen valt, wil men bestraffen, zalven, verzorgen, genezen. Een fascinerende geschiedenis.","schedule":{"stop":"17:00","limit":"100","start":"09:00"}},{"location":{"longitude":"3.7234722","latitude":"51.0574921","description":"Het Huis van Alijn, Kraanlei 65, Gent"},"type":"outdoor","title":"Belcanto-ontbijt in het Huis van Alijn","description":"Geniet in de binnentuin van een lekker ontbijt met een streepje muziek. Keuze tussen een Belcanto-ontbijt (€ 7) en een Belcanto-Royal-ontbijt (mét bubbels - € 10). Welkom tussen 10 en 12 uur! Graag aanmelden vanaf 10 pers. Dit is echter geen reservatie.","schedule":{"stop":"12:00","limit":"1000","start":"10:00"}},{"location":{"longitude":"3.761849","latitude":"51.0359607","description":"Topacademie Sifu Walter Toch, Schooldreef 137, Gentbrugge"},"type":"outdoor","title":"Zelfverdedigingtechnieken, Tai-chi, Qi-Gong, Kung-Fu","description":"U kan ingewijd worden in de Oosterse technieken van Shaolin Kung-Fu, tai-chi, Qi-Gong en zelfverdediging o.l.v. Sifu Walter Toch. 46 jaar ervaring en prof. en eerste Westerling met graduaat van Shaolintempel, Song Shan Henan China 1990.","schedule":{"stop":"21:30","limit":"50","start":"18:00"}},{"location":{"longitude":"3.72076","latitude":"51.05471","description":"Aanlegsteiger Gent Watertoerist, Graslei , Gent"},"type":"outdoor","title":"Kindervoorstelling Pappa Langkous","description":"Rondvaart in de binnenstad met Pappa Langkous.De Gentse kinderen krijgen een stoomcursus Langkous-amusement.  Vertek : 15 u Graslei - Gent-Watertoerist  Prijs : € 6,00/kind (-12 jaar)- € 10,00/Volw. met een gratis Vedett bier. Reservatie verplicht.","schedule":{"stop":"16:00","limit":"50","start":"15:00"}},{"location":{"longitude":"3.72","latitude":"51.05665","description":"Museum voor Schone Kunsten, Citadelpark , Gent"},"type":"outdoor","title":"ZOEKTOCHT VLIEG! voor kinderen van 6 tot 12 jaar","description":"Zoek aan de hand van vijf tips de schat van Vlieg! in het Museum voor Schone Kunsten","schedule":{"stop":"18:00","limit":"50","start":"10:00"}},{"location":{"longitude":"3.7264994","latitude":"51.0428007","description":"Kusnthal Sint-Pietersabdij, Sint-Pietersplein 9, Gent"},"type":"indoor","title":"De Reus met het Gouden Hart","description":"Sprookje bewerkt met het Gentse Pierke","schedule":{"stop":"16:30","limit":"1000","start":"15:00"}},{"location":{"longitude":"3.7245619","latitude":"51.0528708","description":"HETEKOEKJE, Bennesteeg 1-3, Gent"},"type":"indoor","title":"Helderziende Sonia Desmadryl","description":"Geeft inzicht via kaartleggen, numerologie en pendelen.","schedule":{"stop":"00:00","limit":"50","start":"14:00"}},{"location":{"longitude":"3.7198035","latitude":"51.052799","description":"Het Pand, Onderbergen 1, Gent"},"type":"outdoor","title":"Tangram en andere traditionele kinderspelletjes uit China in de Etnografische Verzamelingen","description":"TANGRAM is een Chinees legspel waarbij figuren kunnen worden gevormd uit geometrische stukken. Met zo’n puzzelstuk in de hand speuren en spelen tussen de museumstukken en in de omsloten kloostertuin.   Ouders zijn welkom!","schedule":{"stop":"15:30","limit":"50","start":"14:00"}},{"location":{"longitude":"3.7384238","latitude":"51.0537966","description":"Sint-Baafssite, Gandastraat , Gent"},